$GPGSV,3,1,12,02,72,001,30,05,55,223,27,06,41,073,35,09,22,053,16*77
$GPGSV,3,2,12,12,33,246,20,13,00,174,19,19,27,136,27,17,06,137,*7B
$GPGSV,3,3,12,20,03,230,,23,04,032,,25,26,289,,29,16,313,*73
$GLGSV,3,1,11,66,53,042,31,82,59,341,18,88,04,122,24,81,54,098,37*62
$GLGSV,3,2,11,67,62,182,32,68,10,202,18,74,01,358,,73,07,312,*62
$GLGSV,3,3,11,80,00,262,,65,00,029,,83,09,313,*50
$GPGGA,200258.0,4112.556345,N,07348.245917,W,1,07,0.9,156.1,M,-37.0,M,,*61
$GNGNS,200258.0,4112.556345,N,07348.245917,W,AA,12,0.9,156.1,-37.0,,*51
$GPVTG,317.4,T,317.4,M,0.0,N,0.0,K,A*23
$GPRMC,200258.0,A,4112.556345,N,07348.245917,W,0.0,317.4,300816,0.0,E,A*11
$GPGSA,A,2,02,05,06,09,12,19,23,,,,,,1.2,0.9,0.7*3C
$GNGSA,A,2,02,05,06,09,12,19,23,,,,,,1.2,0.9,0.7*22
$GNGSA,A,2,66,67,68,81,82,,,,,,,,1.2,0.9,0.7*2C
$GPGSV,3,1,12,02,72,001,33,05,55,223,27,06,41,073,35,09,22,053,16*74
$GPGSV,3,2,12,12,33,246,22,13,00,174,19,19,27,136,26,17,06,137,*78
$GPGSV,3,3,12,20,03,230,,23,04,032,,25,26,289,,29,16,313,*73
$GLGSV,3,1,11,66,53,042,36,82,59,341,24,88,04,122,24,81,54,098,40*6A
$GLGSV,3,2,11,67,62,182,35,68,10,202,18,74,01,358,,73,07,312,*65
$GLGSV,3,3,11,80,00,262,,65,00,029,,83,09,313,*50
$GPGGA,200259.0,4112.556347,N,07348.245916,W,1,07,0.9,156.1,M,-37.0,M,,*63
$GNGNS,200259.0,4112.556347,N,07348.245916,W,AA,12,0.9,156.1,-37.0,,*53
$GPVTG,317.4,T,317.4,M,0.0,N,0.0,K,A*23
$GPRMC,200259.0,A,4112.556347,N,07348.245916,W,0.0,317.4,300816,0.0,E,A*13
$GPGSA,A,2,02,05,06,09,12,19,23,,,,,,1.2,0.9,0.7*3C
$GNGSA,A,2,02,05,06,09,12,19,23,,,,,,1.2,0.9,0.7*22
$GNGSA,A,2,66,67,68,81,82,,,,,,,,1.2,0.9,0.7*2C
$GPGSV,3,1,12,02,72,001,33,05,55,223,26,06,41,073,37,09,22,053,16*77
$GPGSV,3,2,12,12,33,246,27,13,00,174,19,19,27,136,22,17,06,137,*79
$GPGSV,3,3,12,20,03,230,,23,04,032,,25,26,289,,29,16,313,*73
$GLGSV,3,1,11,66,53,042,36,82,59,341,23,88,04,122,24,81,54,098,38*62
$GLGSV,3,2,11,67,62,182,32,68,10,202,18,74,01,358,,73,07,312,*62
$GLGSV,3,3,11,80,00,262,,65,00,029,,83,09,313,*50
$GPGGA,200300.0,4112.556346,N,07348.245916,W,1,07,0.9,156.1,M,-37.0,M,,*6F
$GNGNS,200300.0,4112.556346,N,07348.245916,W,AA,12,0.9,156.1,-37.0,,*5F
$GPVTG,317.4,T,317.4,M,0.0,N,0.0,K,A*23
$GPRMC,200300.0,A,4112.556346,N,07348.245916,W,0.0,317.4,300816,0.0,E,A*1F
$GPGSA,A,2,02,05,06,09,12,19,23,,,,,,1.2,0.9,0.7*3C
$GNGSA,A,2,02,05,06,09,12,19,23,,,,,,1.2,0.9,0.7*22
$GNGSA,A,2,66,67,68,81,82,,,,,,,,1.2,0.9,0.7*2C
$GPGSV,3,1,12,02,72,001,33,05,55,223,28,06,41,073,37,09,22,053,16*79
$GPGSV,3,2,12,12,33,246,28,13,00,174,19,19,27,136,21,17,06,137,*75
$GPGSV,3,3,12,20,03,230,,23,04,032,,25,26,289,,29,16,313,*73
$GLGSV,3,1,11,66,53,042,35,82,59,341,25,88,04,122,24,81,54,098,37*68
$GLGSV,3,2,11,67,62,182,33,68,10,202,18,74,01,358,,73,07,312,*63
$GLGSV,3,3,11,80,00,262,,65,00,029,,83,09,313,*50
$GPGGA,200301.0,4112.556348,N,07348.245916,W,1,07,0.9,156.1,M,-37.0,M,,*60
$GNGNS,200301.0,4112.556348,N,07348.245916,W,AA,12,0.9,156.1,-37.0,,*50
$GPVTG,317.4,T,317.4,M,0.0,N,0.0,K,A*23
$GPRMC,200301.0,A,4112.556348,N,07348.245916,W,0.0,317.4,300816,0.0,E,A*10
$GPGSA,A,2,02,05,06,09,12,19,23,,,,,,1.2,0.9,0.7*3C
$GNGSA,A,2,02,05,06,09,12,19,23,,,,,,1.2,0.9,0.7*22
$GNGSA,A,2,66,67,68,81,82,,,,,,,,1.2,0.9,0.7*2C
$GPGSV,3,1,12,02,72,001,33,05,55,223,30,06,41,073,36,09,22,053,16*71
$GPGSV,3,2,12,12,33,246,29,13,00,174,19,19,27,136,23,17,06,137,*76
$GPGSV,3,3,12,20,03,230,,23,04,032,,25,26,289,,29,16,313,*73
$GLGSV,3,1,11,66,53,042,33,82,59,341,25,88,04,122,24,81,54,098,36*6F
$GLGSV,3,2,11,67,62,182,32,68,10,202,18,74,01,358,,73,07,312,*62
$GLGSV,3,3,11,80,00,262,,65,00,029,,83,09,313,*50
$GPGGA,200302.0,4112.556349,N,07348.245915,W,1,05,1.2,156.1,M,-37.0,M,,*69
$GNGNS,200302.0,4112.556349,N,07348.245915,W,AA,09,1.2,156.1,-37.0,,*51
$GPVTG,317.4,T,317.4,M,0.0,N,0.0,K,A*23
$GPRMC,200302.0,A,4112.556349,N,07348.245915,W,0.0,317.4,300816,0.0,E,A*11
$GPGSA,A,2,02,05,06,12,19,,,,,,,,1.5,1.2,0.9*37
$GNGSA,A,2,02,05,06,12,19,,,,,,,,1.5,1.2,0.9*29
$GNGSA,A,2,66,67,81,82,,,,,,,,,1.5,1.2,0.9*21
$GPGSV,3,1,12,02,72,001,32,05,55,223,28,06,41,073,36,09,22,053,16*79
$GPGSV,3,2,12,12,33,246,29,13,00,174,19,19,27,136,20,17,06,137,*75
$GPGSV,3,3,12,20,03,230,,23,04,032,,25,26,289,,29,16,313,*73
$GLGSV,3,1,11,66,53,042,33,82,59,341,25,88,04,122,24,81,54,098,37*6E
$GLGSV,3,2,11,67,62,182,33,68,10,202,18,74,01,358,,73,07,312,*63
$GLGSV,3,3,11,80,00,262,,65,00,029,,83,09,313,*50
$GPGGA,200303.0,4112.556351,N,07348.245916,W,1,05,1.2,156.1,M,-37.0,M,,*62
$GNGNS,200303.0,4112.556351,N,07348.245916,W,AA,09,1.2,156.1,-37.0,,*5A
$GPVTG,317.4,T,317.4,M,0.0,N,0.0,K,A*23
$GPRMC,200303.0,A,4112.556351,N,07348.245916,W,0.0,317.4,300816,0.0,E,A*1A
$GPGSA,A,2,02,05,06,12,19,,,,,,,,1.5,1.2,0.9*37
$GNGSA,A,2,02,05,06,12,19,,,,,,,,1.5,1.2,0.9*29
$GNGSA,A,2,66,67,81,82,,,,,,,,,1.5,1.2,0.9*21
$GPGSV,3,1,12,02,72,001,32,05,55,223,27,06,41,073,36,09,22,053,16*76
$GPGSV,3,2,12,12,33,246,29,13,00,174,19,19,27,136,22,17,06,137,*77
$GPGSV,3,3,12,20,03,230,,23,04,032,,25,26,289,,29,16,313,*73
$GLGSV,3,1,11,66,53,042,33,82,59,341,25,88,04,122,24,81,54,098,38*61
$GLGSV,3,2,11,67,62,182,34,68,10,202,18,74,01,358,,73,07,312,*64
$GLGSV,3,3,11,80,00,262,,65,00,029,,83,09,313,*50
$GPGGA,200304.0,4112.556352,N,07348.245917,W,1,05,1.2,156.1,M,-37.0,M,,*67
$GNGNS,200304.0,4112.556352,N,07348.245917,W,AA,09,1.2,156.1,-37.0,,*5F
$GPVTG,317.4,T,317.4,M,0.0,N,0.0,K,A*23
$GPRMC,200304.0,A,4112.556352,N,07348.245917,W,0.0,317.4,300816,0.0,E,A*1F
$GPGSA,A,2,02,05,06,12,19,,,,,,,,1.5,1.2,0.9*37
$GNGSA,A,2,02,05,06,12,19,,,,,,,,1.5,1.2,0.9*29
$GNGSA,A,2,66,67,81,82,,,,,,,,,1.5,1.2,0.9*21
$GPGSV,3,1,12,02,72,001,32,05,55,223,27,06,41,073,36,09,22,053,16*76
$GPGSV,3,2,12,12,33,246,28,13,00,174,19,19,27,136,25,17,06,137,*71
$GPGSV,3,3,12,20,03,230,,23,04,032,,25,26,289,,29,16,313,*73
$GLGSV,3,1,11,66,53,042,33,82,59,341,24,88,04,122,24,81,54,098,38*60
$GLGSV,3,2,11,67,62,182,33,68,10,202,18,74,01,358,,73,07,312,*63
$GLGSV,3,3,11,80,00,262,,65,00,029,,83,09,313,*50
$GPGGA,200305.0,4112.556354,N,07348.245917,W,1,05,1.2,156.1,M,-37.0,M,,*60
$GNGNS,200305.0,4112.556354,N,07348.245917,W,AA,09,1.2,156.1,-37.0,,*58
$GPVTG,317.4,T,317.4,M,0.0,N,0.0,K,A*23
$GPRMC,200305.0,A,4112.556354,N,07348.245917,W,0.0,317.4,300816,0.0,E,A*18
$GPGSA,A,2,02,05,06,12,19,,,,,,,,1.5,1.2,0.9*37
$GNGSA,A,2,02,05,06,12,19,,,,,,,,1.5,1.2,0.9*29
$GNGSA,A,2,66,67,81,82,,,,,,,,,1.5,1.2,0.9*21
$GPGSV,3,1,11,02,72,001,32,05,55,223,27,06,41,073,36,09,22,053,16*75
$GPGSV,3,2,11,12,33,246,27,19,27,136,21,17,06,137,,20,03,230,*71
$GPGSV,3,3,11,23,04,032,,25,26,289,,29,16,313,*40
$GLGSV,3,1,10,66,53,042,34,82,59,341,24,81,54,098,38,67,62,182,33*6B
$GLGSV,3,2,10,68,10,202,18,74,01,358,,73,07,312,,80,00,262,*62
$GLGSV,3,3,10,65,00,029,,83,09,313,*6F
$GPGGA,200306.0,4112.556357,N,07348.245917,W,1,05,1.2,156.1,M,-37.0,M,,*60
$GNGNS,200306.0,4112.556357,N,07348.245917,W,AA,09,1.2,156.1,-37.0,,*58
$GPVTG,317.4,T,317.4,M,0.0,N,0.0,K,A*23
$GPRMC,200306.0,A,4112.556357,N,07348.245917,W,0.0,317.4,300816,0.0,E,A*18
$GPGSA,A,2,02,05,06,12,19,,,,,,,,1.5,1.2,0.9*37
$GNGSA,A,2,02,05,06,12,19,,,,,,,,1.5,1.2,0.9*29
$GNGSA,A,2,66,67,81,82,,,,,,,,,1.5,1.2,0.9*21
$GPGSV,3,1,12,02,72,001,32,05,55,223,28,06,41,073,36,09,22,053,16*79
$GPGSV,3,2,12,12,33,246,29,19,27,136,24,29,16,313,16,13,00,174,*76
$GPGSV,3,3,12,17,06,137,,20,03,230,,23,04,032,,25,26,289,*7B
$GLGSV,3,1,11,66,53,042,35,82,59,341,25,81,53,101,39,67,63,182,33*6C
$GLGSV,3,2,11,68,10,202,18,74,01,358,,73,07,312,,80,00,262,*63
$GLGSV,3,3,11,65,00,029,,88,04,122,,83,09,313,*5B
$GPGGA,200307.0,4112.556359,N,07348.245917,W,1,05,1.2,156.1,M,-37.0,M,,*6F
$GNGNS,200307.0,4112.556359,N,07348.245917,W,AA,09,1.2,156.1,-37.0,,*57
$GPVTG,317.4,T,317.4,M,0.0,N,0.0,K,A*23
$GPRMC,200307.0,A,4112.556359,N,07348.245917,W,0.0,317.4,300816,0.0,E,A*17
$GPGSA,A,2,02,05,06,12,19,,,,,,,,1.5,1.2,0.9*37
$GNGSA,A,2,02,05,06,12,19,,,,,,,,1.5,1.2,0.9*29
$GNGSA,A,2,66,67,81,82,,,,,,,,,1.5,1.2,0.9*21
$GPGSV,3,1,12,02,72,001,32,05,55,223,28,06,41,073,36,09,22,053,16*79
$GPGSV,3,2,12,12,33,246,30,19,27,136,22,29,16,313,15,13,00,174,*7B
$GPGSV,3,3,12,17,06,137,,20,03,230,,23,04,032,,25,26,289,*7B
$GLGSV,3,1,11,66,53,042,33,82,59,341,26,81,53,101,37,67,63,182,33*67
$GLGSV,3,2,11,68,10,202,12,74,01,358,,73,07,312,,80,00,262,*69
$GLGSV,3,3,11,65,00,029,,88,04,122,,83,09,313,*5B
$GPGGA,200308.0,4112.556358,N,07348.245917,W,1,05,1.2,156.1,M,-37.0,M,,*61
$GNGNS,200308.0,4112.556358,N,07348.245917,W,AA,09,1.2,156.1,-37.0,,*59
$GPVTG,317.4,T,317.4,M,0.0,N,0.0,K,A*23
$GPRMC,200308.0,A,4112.556358,N,07348.245917,W,0.0,317.4,300816,0.0,E,A*19
$GPGSA,A,2,02,05,06,12,19,,,,,,,,1.5,1.2,0.9*37
$GNGSA,A,2,02,05,06,12,19,,,,,,,,1.5,1.2,0.9*29
$GNGSA,A,2,66,67,81,82,,,,,,,,,1.5,1.2,0.9*21
$GPGSV,3,1,12,02,72,001,33,05,55,223,29,06,41,073,36,09,22,053,16*79
$GPGSV,3,2,12,12,33,246,30,19,27,136,19,29,16,313,15,13,00,174,*73
$GPGSV,3,3,12,17,06,137,,20,03,230,,23,04,032,,25,26,289,*7B
$GLGSV,3,1,11,66,53,042,34,82,59,341,28,81,53,101,36,67,63,182,31*6D
$GLGSV,3,2,11,68,10,202,12,74,01,358,,73,07,312,,80,00,262,*69
$GLGSV,3,3,11,65,00,029,,88,04,122,,83,09,313,*5B
$GPGGA,200309.0,4112.556359,N,07348.245918,W,1,05,1.2,156.1,M,-37.0,M,,*6E
$GNGNS,200309.0,4112.556359,N,07348.245918,W,AA,09,1.2,156.1,-37.0,,*56
$GPVTG,317.4,T,317.4,M,0.0,N,0.0,K,A*23
$GPRMC,200309.0,A,4112.556359,N,07348.245918,W,0.0,317.4,300816,0.0,E,A*16
$GPGSA,A,2,02,05,06,12,19,,,,,,,,1.5,1.2,0.9*37
$GNGSA,A,2,02,05,06,12,19,,,,,,,,1.5,1.2,0.9*29
$GNGSA,A,2,66,67,81,82,,,,,,,,,1.5,1.2,0.9*21
$GPGSV,3,1,12,02,72,001,32,05,55,223,29,06,41,073,36,09,22,053,12*7C
$GPGSV,3,2,12,12,33,246,30,19,27,136,19,29,16,313,15,13,00,174,*73
$GPGSV,3,3,12,17,06,137,,20,03,230,,23,04,032,,25,26,289,*7B
$GLGSV,3,1,11,66,53,042,33,82,59,341,27,81,53,101,35,67,63,182,31*66
$GLGSV,3,2,11,68,10,202,12,74,01,358,,73,07,312,,80,00,262,*69
$GLGSV,3,3,11,65,00,029,,88,04,122,,83,09,313,*5B
$GPGGA,200310.0,4112.556363,N,07348.245919,W,1,05,1.2,156.1,M,-37.0,M,,*6E
$GNGNS,200310.0,4112.556363,N,07348.245919,W,AA,09,1.2,156.1,-37.0,,*56
$GPVTG,317.4,T,317.4,M,0.0,N,0.0,K,A*23
$GPRMC,200310.0,A,4112.556363,N,07348.245919,W,0.0,317.4,300816,0.0,E,A*16
$GPGSA,A,2,02,05,06,12,19,,,,,,,,1.5,1.2,0.9*37
$GNGSA,A,2,02,05,06,12,19,,,,,,,,1.5,1.2,0.9*29
$GNGSA,A,2,66,67,81,82,,,,,,,,,1.5,1.2,0.9*21
$GPGSV,3,1,12,02,72,001,33,05,55,223,30,06,41,073,38,09,22,053,12*7B
$GPGSV,3,2,12,12,33,246,28,19,27,136,24,29,16,313,15,13,00,174,*74
$GPGSV,3,3,12,17,06,137,,20,03,230,,23,04,032,,25,26,289,*7B
$GLGSV,3,1,11,66,53,042,34,82,59,341,25,81,53,101,38,67,63,182,31*6E
$GLGSV,3,2,11,68,10,202,18,74,01,358,,73,07,312,,80,00,262,*63
$GLGSV,3,3,11,65,00,029,,88,04,122,,83,09,313,*5B
$GPGGA,200311.0,4112.556362,N,07348.245919,W,1,05,1.2,156.1,M,-37.0,M,,*6E
$GNGNS,200311.0,4112.556362,N,07348.245919,W,AA,09,1.2,156.1,-37.0,,*56
$GPVTG,317.4,T,317.4,M,0.0,N,0.0,K,A*23
$GPRMC,200311.0,A,4112.556362,N,07348.245919,W,0.0,317.4,300816,0.0,E,A*16
$GPGSA,A,2,02,05,06,12,19,,,,,,,,1.5,1.2,0.9*37
$GNGSA,A,2,02,05,06,12,19,,,,,,,,1.5,1.2,0.9*29
$GNGSA,A,2,66,67,81,82,,,,,,,,,1.5,1.2,0.9*21
$GPGSV,3,1,12,02,72,001,32,05,55,223,29,06,41,073,39,09,22,053,17*76
$GPGSV,3,2,12,12,33,246,26,19,27,136,26,29,16,313,15,13,00,174,*78
$GPGSV,3,3,12,17,06,137,,20,03,230,,23,04,032,,25,26,289,*7B
$GLGSV,3,1,11,66,53,042,38,82,59,341,18,81,53,101,40,67,63,182,30*62
$GLGSV,3,2,11,68,10,202,19,74,01,358,,73,07,312,,80,00,262,*62
$GLGSV,3,3,11,65,00,029,,88,04,122,,83,09,313,*5B
$GPGGA,200312.0,4112.556362,N,07348.245919,W,1,05,1.2,156.1,M,-37.0,M,,*6D
$GNGNS,200312.0,4112.556362,N,07348.245919,W,AA,09,1.2,156.1,-37.0,,*55
$GPVTG,317.4,T,317.4,M,0.0,N,0.0,K,A*23
$GPRMC,200312.0,A,4112.556362,N,07348.245919,W,0.0,317.4,300816,0.0,E,A*15
$GPGSA,A,2,02,05,06,12,19,,,,,,,,1.5,1.2,0.9*37
$GNGSA,A,2,02,05,06,12,19,,,,,,,,1.5,1.2,0.9*29
$GNGSA,A,2,66,67,81,82,,,,,,,,,1.5,1.2,0.9*21
$GPGSV,3,1,12,02,72,001,32,05,55,223,25,06,41,073,38,09,22,053,17*7B
$GPGSV,3,2,12,12,33,246,22,19,27,136,26,29,16,313,15,13,00,174,*7C
$GPGSV,3,3,12,17,06,137,,20,03,230,,23,04,032,,25,26,289,*7B
$GLGSV,3,1,11,66,53,042,39,82,59,341,18,81,53,101,42,67,63,182,31*60
$GLGSV,3,2,11,68,10,202,18,74,01,358,,73,07,312,,80,00,262,*63
$GLGSV,3,3,11,65,00,029,,88,04,122,,83,09,313,*5B
$GPGGA,200313.0,4112.556364,N,07348.245919,W,1,05,1.2,156.1,M,-37.0,M,,*6A
$GNGNS,200313.0,4112.556364,N,07348.245919,W,AA,09,1.2,156.1,-37.0,,*52
$GPVTG,317.4,T,317.4,M,0.0,N,0.0,K,A*23
$GPRMC,200313.0,A,4112.556364,N,07348.245919,W,0.0,317.4,300816,0.0,E,A*12
$GPGSA,A,2,02,05,06,12,19,,,,,,,,1.5,1.2,0.9*37
$GNGSA,A,2,02,05,06,12,19,,,,,,,,1.5,1.2,0.9*29
$GNGSA,A,2,66,67,81,82,,,,,,,,,1.5,1.2,0.9*21
$GPGSV,3,1,12,02,72,001,32,05,55,223,26,06,41,073,38,09,22,053,17*78
$GPGSV,3,2,12,12,33,246,25,19,27,136,24,29,16,313,15,13,00,174,*79
$GPGSV,3,3,12,17,06,137,,20,03,230,,23,04,032,,25,26,289,*7B
$GLGSV,3,1,11,66,53,042,38,82,59,341,18,81,53,101,41,67,63,182,31*62
$GLGSV,3,2,11,68,10,202,18,74,01,358,,73,07,312,,80,00,262,*63
$GLGSV,3,3,11,65,00,029,,88,04,122,,83,09,313,*5B
$GPGGA,200314.0,4112.556368,N,07348.245919,W,1,05,1.2,156.1,M,-37.0,M,,*61
$GNGNS,200314.0,4112.556368,N,07348.245919,W,AA,09,1.2,156.1,-37.0,,*59
$GPVTG,317.4,T,317.4,M,0.0,N,0.0,K,A*23
$GPRMC,200314.0,A,4112.556368,N,07348.245919,W,0.0,317.4,300816,0.0,E,A*19
$GPGSA,A,2,02,05,06,12,19,,,,,,,,1.5,1.2,0.9*37
$GNGSA,A,2,02,05,06,12,19,,,,,,,,1.5,1.2,0.9*29
$GNGSA,A,2,66,67,81,82,,,,,,,,,1.5,1.2,0.9*21
$GPGSV,3,1,12,02,72,001,31,05,55,223,27,06,41,073,37,09,22,053,17*75
$GPGSV,3,2,12,12,33,246,24,19,27,136,28,29,16,313,15,13,00,174,*74
$GPGSV,3,3,12,17,06,137,,20,03,230,,23,04,032,,25,26,289,*7B
$GLGSV,3,1,11,66,53,042,37,82,59,341,18,81,53,101,42,67,63,182,31*6E
$GLGSV,3,2,11,68,10,202,18,74,01,358,,73,07,312,,80,00,262,*63
$GLGSV,3,3,11,65,00,029,,88,04,122,,83,09,313,*5B
$GPGGA,200315.0,4112.556370,N,07348.245920,W,1,05,1.2,156.1,M,-37.0,M,,*63
$GNGNS,200315.0,4112.556370,N,07348.245920,W,AA,09,1.2,156.1,-37.0,,*5B
$GPVTG,317.4,T,317.4,M,0.0,N,0.0,K,A*23
$GPRMC,200315.0,A,4112.556370,N,07348.245920,W,0.0,317.4,300816,0.0,E,A*1B
$GPGSA,A,2,02,05,06,12,19,,,,,,,,1.5,1.2,0.9*37
$GNGSA,A,2,02,05,06,12,19,,,,,,,,1.5,1.2,0.9*29
$GNGSA,A,2,66,67,81,82,,,,,,,,,1.5,1.2,0.9*21
$GPGSV,3,1,12,02,72,001,31,05,55,223,27,06,41,073,37,09,22,053,17*75
$GPGSV,3,2,12,12,33,246,24,19,27,136,28,29,16,313,15,13,00,174,*74
$GPGSV,3,3,12,17,06,137,,20,03,230,,23,04,032,,25,26,289,*7B
$GLGSV,3,1,11,66,53,042,36,82,59,341,18,81,53,101,41,67,63,182,31*6C
$GLGSV,3,2,11,68,10,202,18,74,01,358,,73,07,312,,80,00,262,*63
$GLGSV,3,3,11,65,00,029,,88,04,122,,83,09,313,*5B
$GPGGA,200316.0,4112.556371,N,07348.245919,W,1,05,1.2,156.1,M,-37.0,M,,*6B
$GNGNS,200316.0,4112.556371,N,07348.245919,W,AA,09,1.2,156.1,-37.0,,*53
$GPVTG,317.4,T,317.4,M,0.0,N,0.0,K,A*23
$GPRMC,200316.0,A,4112.556371,N,07348.245919,W,0.0,317.4,300816,0.0,E,A*13
$GPGSA,A,2,02,05,06,12,19,,,,,,,,1.5,1.2,0.9*37
$GNGSA,A,2,02,05,06,12,19,,,,,,,,1.5,1.2,0.9*29
$GNGSA,A,2,66,67,81,82,,,,,,,,,1.5,1.2,0.9*21
$GPGSV,3,1,12,02,72,001,32,05,55,223,27,06,41,073,37,09,22,053,17*76
$GPGSV,3,2,12,12,33,246,28,19,27,136,28,29,16,313,15,13,00,174,*78
$GPGSV,3,3,12,17,06,137,,20,03,230,,23,04,032,,25,26,289,*7B
$GLGSV,3,1,11,66,53,042,33,82,59,341,13,81,53,101,41,67,63,182,29*6B
$GLGSV,3,2,11,68,10,202,18,74,01,358,,73,07,312,,80,00,262,*63
$GLGSV,3,3,11,65,00,029,,88,04,122,,83,09,313,*5B
$GPGGA,200317.0,4112.556371,N,07348.245920,W,1,05,1.2,156.1,M,-37.0,M,,*60
$GNGNS,200317.0,4112.556371,N,07348.245920,W,AA,09,1.2,156.1,-37.0,,*58
$GPVTG,317.4,T,317.4,M,0.0,N,0.0,K,A*23
$GPRMC,200317.0,A,4112.556371,N,07348.245920,W,0.0,317.4,300816,0.0,E,A*18
$GPGSA,A,2,02,05,06,12,19,,,,,,,,1.5,1.2,0.9*37
$GNGSA,A,2,02,05,06,12,19,,,,,,,,1.5,1.2,0.9*29
$GNGSA,A,2,66,67,81,82,,,,,,,,,1.5,1.2,0.9*21
$GPGSV,3,1,12,02,72,001,31,05,55,223,28,06,41,073,36,09,22,053,16*7A
$GPGSV,3,2,12,12,33,246,20,19,27,136,28,29,16,313,15,13,00,174,*70
$GPGSV,3,3,12,17,06,137,,20,03,230,,23,04,032,,25,26,289,*7B
$GLGSV,3,1,11,66,53,042,26,82,59,341,13,81,53,101,40,67,63,182,28*6F
$GLGSV,3,2,11,68,10,202,18,74,01,358,,73,07,312,,80,00,262,*63
$GLGSV,3,3,11,65,00,029,,88,04,122,,83,09,313,*5B
$GPGGA,200318.0,4112.556369,N,07348.245920,W,1,05,1.3,156.1,M,-37.0,M,,*67
$GNGNS,200318.0,4112.556369,N,07348.245920,W,AA,08,1.3,156.1,-37.0,,*5E
$GPVTG,317.4,T,317.4,M,0.0,N,0.0,K,A*23
$GPRMC,200318.0,A,4112.556369,N,07348.245920,W,0.0,317.4,300816,0.0,E,A*1E
$GPGSA,A,2,02,05,06,12,19,,,,,,,,1.6,1.3,0.9*35
$GNGSA,A,2,02,05,06,12,19,,,,,,,,1.6,1.3,0.9*2B
$GNGSA,A,2,66,67,81,,,,,,,,,,1.6,1.3,0.9*29
$GPGSV,3,1,12,02,72,001,30,05,55,223,29,06,41,073,37,09,22,053,20*7E
$GPGSV,3,2,12,12,33,246,20,17,06,137,21,19,27,136,29,29,16,313,15*77
$GPGSV,3,3,12,13,00,174,,20,03,230,,23,04,032,,25,26,289,*7E
$GLGSV,3,1,11,66,53,042,25,82,59,341,13,81,53,101,40,67,63,182,29*6D
$GLGSV,3,2,11,68,10,202,18,74,01,358,,73,07,312,,80,00,262,*63
$GLGSV,3,3,11,65,00,029,,88,04,122,,83,09,313,*5B
$GPGGA,200319.0,4112.556369,N,07348.245921,W,1,07,1.0,156.1,M,-37.0,M,,*66
$GNGNS,200319.0,4112.556369,N,07348.245921,W,AA,10,1.0,156.1,-37.0,,*54
$GPVTG,317.4,T,317.4,M,0.0,N,0.0,K,A*23
$GPRMC,200319.0,A,4112.556369,N,07348.245921,W,0.0,317.4,300816,0.0,E,A*1E
$GPGSA,A,2,02,05,06,09,12,17,19,,,,,,1.4,1.0,0.9*3B
$GNGSA,A,2,02,05,06,09,12,17,19,,,,,,1.4,1.0,0.9*25
$GNGSA,A,2,66,67,81,,,,,,,,,,1.4,1.0,0.9*28
$GPGSV,3,1,12,02,72,001,30,05,55,223,28,06,41,073,37,09,22,053,22*7D
$GPGSV,3,2,12,12,33,246,20,17,06,137,20,19,27,136,30,29,16,313,15*7E
$GPGSV,3,3,12,13,00,174,,20,03,230,,23,04,032,,25,26,289,*7E
$GLGSV,3,1,11,66,53,042,25,82,59,341,13,81,53,101,40,67,63,182,29*6D
$GLGSV,3,2,11,68,10,202,18,74,01,358,,73,07,312,,80,00,262,*63
$GLGSV,3,3,11,65,00,029,,88,04,122,,83,09,313,*5B
$GPGGA,200320.0,4112.556368,N,07348.245922,W,1,07,1.0,156.1,M,-37.0,M,,*6E
$GNGNS,200320.0,4112.556368,N,07348.245922,W,AA,10,1.0,156.1,-37.0,,*5C
$GPVTG,317.4,T,317.4,M,0.0,N,0.0,K,A*23
$GPRMC,200320.0,A,4112.556368,N,07348.245922,W,0.0,317.4,300816,0.0,E,A*16
$GPGSA,A,2,02,05,06,09,12,17,19,,,,,,1.4,1.0,0.9*3B
$GNGSA,A,2,02,05,06,09,12,17,19,,,,,,1.4,1.0,0.9*25
$GNGSA,A,2,66,67,81,,,,,,,,,,1.4,1.0,0.9*28
$GPGSV,3,1,12,02,72,001,29,05,55,223,28,06,41,073,37,09,22,053,21*76
$GPGSV,3,2,12,12,33,246,17,17,06,137,19,19,27,136,31,29,16,313,15*71
$GPGSV,3,3,12,13,00,174,,20,03,230,,23,04,032,,25,26,289,*7E
$GLGSV,3,1,11,66,53,042,26,82,59,341,13,81,53,101,40,67,63,182,29*6E
$GLGSV,3,2,11,68,10,202,18,74,01,358,,73,07,312,,80,00,262,*63
$GLGSV,3,3,11,65,00,029,,88,04,122,,83,09,313,*5B
$GPGGA,200321.0,4112.556370,N,07348.245921,W,1,07,1.0,156.1,M,-37.0,M,,*65
$GNGNS,200321.0,4112.556370,N,07348.245921,W,AA,10,1.0,156.1,-37.0,,*57
$GPVTG,317.4,T,317.4,M,0.0,N,0.0,K,A*23
$GPRMC,200321.0,A,4112.556370,N,07348.245921,W,0.0,317.4,300816,0.0,E,A*1D
$GPGSA,A,2,02,05,06,09,12,17,19,,,,,,1.4,1.0,0.9*3B
$GNGSA,A,2,02,05,06,09,12,17,19,,,,,,1.4,1.0,0.9*25
$GNGSA,A,2,66,67,81,,,,,,,,,,1.4,1.0,0.9*28
$GPGSV,3,1,12,02,72,001,29,05,55,223,28,06,41,073,37,09,22,053,21*76
$GPGSV,3,2,12,12,33,246,17,17,06,137,20,19,27,136,30,29,16,313,15*7A
$GPGSV,3,3,12,13,00,174,,20,03,230,,23,04,032,,25,26,289,*7E
$GLGSV,3,1,11,66,53,042,26,82,59,341,13,81,53,101,40,67,63,182,29*6E
$GLGSV,3,2,11,68,10,202,18,74,01,358,,73,07,312,,80,00,262,*63
$GLGSV,3,3,11,65,00,029,,88,04,122,,83,09,313,*5B
$GPGGA,200322.0,4112.556371,N,07348.245922,W,1,07,1.0,156.1,M,-37.0,M,,*64
$GNGNS,200322.0,4112.556371,N,07348.245922,W,AA,10,1.0,156.1,-37.0,,*56
$GPVTG,317.4,T,317.4,M,0.0,N,0.0,K,A*23
$GPRMC,200322.0,A,4112.556371,N,07348.245922,W,0.0,317.4,300816,0.0,E,A*1C
$GPGSA,A,2,02,05,06,09,12,17,19,,,,,,1.4,1.0,0.9*3B
$GNGSA,A,2,02,05,06,09,12,17,19,,,,,,1.4,1.0,0.9*25
$GNGSA,A,2,66,67,81,,,,,,,,,,1.4,1.0,0.9*28
$GPGSV,3,1,12,02,72,001,30,05,55,223,27,06,41,073,37,09,22,053,21*71
$GPGSV,3,2,12,12,33,246,22,17,06,137,19,19,27,136,32,29,16,313,15*74
$GPGSV,3,3,12,13,00,174,,20,03,230,,23,04,032,,25,26,289,*7E
$GLGSV,3,1,11,66,53,042,26,82,59,341,13,81,53,101,39,67,63,182,29*60
$GLGSV,3,2,11,68,10,202,18,74,01,358,,73,07,312,,80,00,262,*63
$GLGSV,3,3,11,65,00,029,,88,04,122,,83,09,313,*5B
$GPGGA,200323.0,4112.556371,N,07348.245922,W,1,07,1.0,156.1,M,-37.0,M,,*65
$GNGNS,200323.0,4112.556371,N,07348.245922,W,AA,10,1.0,156.1,-37.0,,*57
$GPVTG,317.4,T,317.4,M,0.0,N,0.0,K,A*23
$GPRMC,200323.0,A,4112.556371,N,07348.245922,W,0.0,317.4,300816,0.0,E,A*1D
$GPGSA,A,2,02,05,06,09,12,17,19,,,,,,1.4,1.0,0.9*3B
$GNGSA,A,2,02,05,06,09,12,17,19,,,,,,1.4,1.0,0.9*25
$GNGSA,A,2,66,67,81,,,,,,,,,,1.4,1.0,0.9*28
$GPGSV,3,1,12,02,72,001,29,05,55,223,28,06,41,073,37,09,22,053,22*75
$GPGSV,3,2,12,12,33,246,27,17,06,137,19,19,27,136,30,29,16,313,15*73
$GPGSV,3,3,12,13,00,174,,20,03,230,,23,04,032,,25,26,289,*7E
$GLGSV,3,1,11,66,53,042,23,82,59,341,13,81,53,101,39,67,63,182,28*64
$GLGSV,3,2,11,68,10,202,18,74,01,358,,73,07,312,,80,00,262,*63
$GLGSV,3,3,11,65,00,029,,88,04,122,,83,09,313,*5B
$GPGGA,200324.0,4112.556372,N,07348.245922,W,1,07,1.0,156.1,M,-37.0,M,,*61
$GNGNS,200324.0,4112.556372,N,07348.245922,W,AA,10,1.0,156.1,-37.0,,*53
$GPVTG,317.4,T,317.4,M,0.0,N,0.0,K,A*23
$GPRMC,200324.0,A,4112.556372,N,07348.245922,W,0.0,317.4,300816,0.0,E,A*19
$GPGSA,A,2,02,05,06,09,12,17,19,,,,,,1.4,1.0,0.9*3B
$GNGSA,A,2,02,05,06,09,12,17,19,,,,,,1.4,1.0,0.9*25
$GNGSA,A,2,66,67,81,,,,,,,,,,1.4,1.0,0.9*28
$GPGSV,3,1,12,02,72,001,29,05,55,223,28,06,41,073,37,09,22,053,22*75
$GPGSV,3,2,12,12,33,246,27,17,06,137,18,19,27,136,30,29,16,313,15*72
$GPGSV,3,3,12,13,00,174,,20,03,230,,23,04,032,,25,26,289,*7E
$GLGSV,3,1,11,66,53,042,23,82,59,341,13,81,53,101,39,67,63,182,29*65
$GLGSV,3,2,11,68,10,202,18,74,01,358,,73,07,312,,80,00,262,*63
$GLGSV,3,3,11,65,00,029,,88,04,122,,83,09,313,*5B
$GPGGA,200325.0,4112.556372,N,07348.245923,W,1,07,1.0,156.1,M,-37.0,M,,*61
$GNGNS,200325.0,4112.556372,N,07348.245923,W,AA,10,1.0,156.1,-37.0,,*53
$GPVTG,317.4,T,317.4,M,0.0,N,0.0,K,A*23
$GPRMC,200325.0,A,4112.556372,N,07348.245923,W,0.0,317.4,300816,0.0,E,A*19
$GPGSA,A,2,02,05,06,09,12,17,19,,,,,,1.4,1.0,0.9*3B
$GNGSA,A,2,02,05,06,09,12,17,19,,,,,,1.4,1.0,0.9*25
$GNGSA,A,2,66,67,81,,,,,,,,,,1.4,1.0,0.9*28
$GPGSV,3,1,12,02,72,001,29,05,55,223,28,06,41,073,37,09,22,053,21*76
$GPGSV,3,2,12,12,33,246,28,17,06,137,18,19,27,136,30,25,26,289,14*71
$GPGSV,3,3,12,29,16,313,15,13,00,174,,20,03,230,,23,04,032,*77
$GLGSV,3,1,11,66,53,042,23,82,59,341,13,81,53,101,38,67,63,182,29*64
$GLGSV,3,2,11,68,10,202,10,74,01,358,,73,07,312,,80,00,262,*6B
$GLGSV,3,3,11,65,00,029,,88,04,122,,83,09,313,*5B
$GPGGA,200326.0,4112.556372,N,07348.245923,W,1,07,1.0,156.1,M,-37.0,M,,*62
$GNGNS,200326.0,4112.556372,N,07348.245923,W,AA,10,1.0,156.1,-37.0,,*50
$GPVTG,317.4,T,317.4,M,0.0,N,0.0,K,A*23
$GPRMC,200326.0,A,4112.556372,N,07348.245923,W,0.0,317.4,300816,0.0,E,A*1A
$GPGSA,A,2,02,05,06,09,12,17,19,,,,,,1.4,1.0,0.9*3B
$GNGSA,A,2,02,05,06,09,12,17,19,,,,,,1.4,1.0,0.9*25
$GNGSA,A,2,66,67,81,,,,,,,,,,1.4,1.0,0.9*28
$GPGSV,3,1,12,02,72,001,28,05,55,223,29,06,41,073,36,09,22,053,22*74
$GPGSV,3,2,12,12,33,246,27,17,06,137,19,19,27,136,30,25,26,289,15*7E
$GPGSV,3,3,12,29,16,313,15,13,00,174,,20,03,230,,23,04,032,*77
$GLGSV,3,1,11,66,53,042,21,82,59,341,13,81,53,101,39,67,63,182,29*67
$GLGSV,3,2,11,68,10,202,10,74,01,358,,73,07,312,,80,00,262,*6B
$GLGSV,3,3,11,65,00,029,,88,04,122,,83,09,313,*5B
$GPGGA,200327.0,4112.556373,N,07348.245922,W,1,06,1.2,156.1,M,-37.0,M,,*60
$GNGNS,200327.0,4112.556373,N,07348.245922,W,AA,09,1.2,156.1,-37.0,,*5B
$GPVTG,317.4,T,317.4,M,0.0,N,0.0,K,A*23
$GPRMC,200327.0,A,4112.556373,N,07348.245922,W,0.0,317.4,300816,0.0,E,A*1B
$GPGSA,A,2,02,05,06,09,12,19,,,,,,,1.5,1.2,0.9*3E
$GNGSA,A,2,02,05,06,09,12,19,,,,,,,1.5,1.2,0.9*20
$GNGSA,A,2,66,67,81,,,,,,,,,,1.5,1.2,0.9*2B
$GPGSV,3,1,12,02,72,001,28,05,55,223,28,06,41,073,37,09,22,053,22*74
$GPGSV,3,2,12,12,33,246,28,17,06,137,17,19,27,136,30,25,26,289,14*7E
$GPGSV,3,3,12,29,16,313,15,13,00,174,,20,03,230,,23,04,032,*77
$GLGSV,3,1,11,66,53,042,19,82,59,341,13,81,53,101,39,67,63,182,28*6D
$GLGSV,3,2,11,68,10,202,10,74,01,358,,73,07,312,,80,00,262,*6B
$GLGSV,3,3,11,65,00,029,,88,04,122,,83,09,313,*5B
$GPGGA,200328.0,4112.556373,N,07348.245922,W,1,06,1.2,156.1,M,-37.0,M,,*6F
$GNGNS,200328.0,4112.556373,N,07348.245922,W,AA,09,1.2,156.1,-37.0,,*54
$GPVTG,317.4,T,317.4,M,0.0,N,0.0,K,A*23
$GPRMC,200328.0,A,4112.556373,N,07348.245922,W,0.0,317.4,300816,0.0,E,A*14
$GPGSA,A,2,02,05,06,09,12,19,,,,,,,1.5,1.2,0.9*3E
$GNGSA,A,2,02,05,06,09,12,19,,,,,,,1.5,1.2,0.9*20
$GNGSA,A,2,66,67,81,,,,,,,,,,1.5,1.2,0.9*2B
$GPGSV,3,1,12,02,72,001,29,05,55,223,29,06,41,073,37,09,22,053,23*75
$GPGSV,3,2,12,12,33,246,28,17,06,137,19,19,27,136,29,25,26,289,14*78
$GPGSV,3,3,12,29,16,313,15,13,00,174,,20,03,230,,23,04,032,*77
$GLGSV,3,1,11,66,53,042,20,82,59,341,13,81,53,101,39,67,63,182,28*67
$GLGSV,3,2,11,68,10,202,10,74,01,358,,73,07,312,,80,00,262,*6B
$GLGSV,3,3,11,65,00,029,,88,04,122,,83,09,313,*5B
$GPGGA,200329.0,4112.556373,N,07348.245921,W,1,06,1.2,156.1,M,-37.0,M,,*6D
$GNGNS,200329.0,4112.556373,N,07348.245921,W,AA,09,1.2,156.1,-37.0,,*56
$GPVTG,317.4,T,317.4,M,0.0,N,0.0,K,A*23
$GPRMC,200329.0,A,4112.556373,N,07348.245921,W,0.0,317.4,300816,0.0,E,A*16
$GPGSA,A,2,02,05,06,09,12,19,,,,,,,1.5,1.2,0.9*3E
$GNGSA,A,2,02,05,06,09,12,19,,,,,,,1.5,1.2,0.9*20
$GNGSA,A,2,66,67,81,,,,,,,,,,1.5,1.2,0.9*2B
$GPGSV,3,1,12,02,72,001,29,05,55,223,30,06,41,073,37,09,22,053,23*7D
$GPGSV,3,2,12,12,33,246,29,17,06,137,17,19,27,136,30,25,26,289,14*7F
$GPGSV,3,3,12,29,16,313,15,13,00,174,,20,03,230,,23,04,032,*77
$GLGSV,3,1,11,66,53,042,20,82,59,341,13,81,53,101,39,67,63,182,29*66
$GLGSV,3,2,11,68,10,202,10,74,01,358,,73,07,312,,80,00,262,*6B
$GLGSV,3,3,11,65,00,029,,88,04,122,,83,09,313,*5B
$GPGGA,200330.0,4112.556373,N,07348.245922,W,1,06,1.2,156.1,M,-37.0,M,,*66
$GNGNS,200330.0,4112.556373,N,07348.245922,W,AA,09,1.2,156.1,-37.0,,*5D
$GPVTG,317.4,T,317.4,M,0.0,N,0.0,K,A*23
$GPRMC,200330.0,A,4112.556373,N,07348.245922,W,0.0,317.4,300816,0.0,E,A*1D
$GPGSA,A,2,02,05,06,09,12,19,,,,,,,1.5,1.2,0.9*3E
$GNGSA,A,2,02,05,06,09,12,19,,,,,,,1.5,1.2,0.9*20
$GNGSA,A,2,66,67,81,,,,,,,,,,1.5,1.2,0.9*2B
$GPGSV,3,1,11,02,72,001,29,05,55,223,31,06,41,073,37,09,22,053,24*78
$GPGSV,3,2,11,12,33,246,29,17,06,137,17,19,27,136,30,25,26,289,14*7C
$GPGSV,3,3,11,13,00,174,,20,03,230,,23,04,032,*4D
$GLGSV,3,1,11,66,53,042,20,82,59,341,13,81,53,101,39,67,63,182,28*67
$GLGSV,3,2,11,68,10,202,10,74,01,358,,73,07,312,,80,00,262,*6B
$GLGSV,3,3,11,65,00,029,,88,04,122,,83,09,313,*5B
$GPGGA,200331.0,4112.556373,N,07348.245922,W,1,06,1.2,156.1,M,-37.0,M,,*67
$GNGNS,200331.0,4112.556373,N,07348.245922,W,AA,09,1.2,156.1,-37.0,,*5C
$GPVTG,317.4,T,317.4,M,0.0,N,0.0,K,A*23
$GPRMC,200331.0,A,4112.556373,N,07348.245922,W,0.0,317.4,300816,0.0,E,A*1C
$GPGSA,A,2,02,05,06,09,12,19,,,,,,,1.5,1.2,0.9*3E
$GNGSA,A,2,02,05,06,09,12,19,,,,,,,1.5,1.2,0.9*20
$GNGSA,A,2,66,67,81,,,,,,,,,,1.5,1.2,0.9*2B
$GPGSV,3,1,12,02,72,001,29,05,55,223,31,06,41,073,37,09,22,053,23*7C
$GPGSV,3,2,12,12,33,246,29,17,06,137,16,19,27,136,30,25,26,289,13*79
$GPGSV,3,3,12,13,00,174,,20,03,230,,23,04,032,,29,16,313,*73
$GLGSV,3,1,11,66,53,042,20,82,59,341,13,81,53,101,39,67,63,182,29*66
$GLGSV,3,2,11,68,10,202,14,74,01,358,,73,07,312,,80,00,262,*6F
$GLGSV,3,3,11,65,00,029,,88,04,122,,83,09,313,*5B
$GPGGA,200332.0,4112.556372,N,07348.245923,W,1,06,1.2,156.1,M,-37.0,M,,*64
$GNGNS,200332.0,4112.556372,N,07348.245923,W,AA,09,1.2,156.1,-37.0,,*5F
$GPVTG,317.4,T,317.4,M,0.0,N,0.0,K,A*23
$GPRMC,200332.0,A,4112.556372,N,07348.245923,W,0.0,317.4,300816,0.0,E,A*1F
$GPGSA,A,2,02,05,06,09,12,19,,,,,,,1.5,1.2,0.9*3E
$GNGSA,A,2,02,05,06,09,12,19,,,,,,,1.5,1.2,0.9*20
$GNGSA,A,2,66,67,81,,,,,,,,,,1.5,1.2,0.9*2B
$GPGSV,3,1,12,02,72,001,29,05,55,223,30,06,41,073,37,09,22,053,23*7D
$GPGSV,3,2,12,12,33,246,30,17,06,137,16,19,27,136,30,25,26,289,13*71
$GPGSV,3,3,12,13,00,174,,20,03,230,,23,04,032,,29,16,313,*73
$GLGSV,3,1,11,66,53,042,18,82,60,343,13,81,53,101,39,67,63,182,29*65
$GLGSV,3,2,11,68,10,202,14,74,01,358,,73,07,312,,80,00,262,*6F
$GLGSV,3,3,11,65,00,029,,88,04,122,,83,09,313,*5B
$GPGGA,200333.0,4112.556372,N,07348.245923,W,1,06,1.2,156.1,M,-37.0,M,,*65
$GNGNS,200333.0,4112.556372,N,07348.245923,W,AA,09,1.2,156.1,-37.0,,*5E
$GPVTG,317.4,T,317.4,M,0.0,N,0.0,K,A*23
$GPRMC,200333.0,A,4112.556372,N,07348.245923,W,0.0,317.4,300816,0.0,E,A*1E
$GPGSA,A,2,02,05,06,09,12,19,,,,,,,1.5,1.2,0.9*3E
$GNGSA,A,2,02,05,06,09,12,19,,,,,,,1.5,1.2,0.9*20
$GNGSA,A,2,66,67,81,,,,,,,,,,1.5,1.2,0.9*2B
$GPGSV,3,1,12,02,72,001,29,05,55,223,31,06,41,073,37,09,22,053,22*7D
$GPGSV,3,2,12,12,33,246,30,17,06,137,17,19,27,136,30,25,26,289,13*70
$GPGSV,3,3,12,13,00,174,,20,03,230,,23,04,032,,29,16,313,*73
$GLGSV,3,1,11,66,53,042,19,82,60,343,13,83,09,313,10,81,53,101,39*62
$GLGSV,3,2,11,67,63,182,29,68,10,202,14,74,01,358,,73,07,312,*65
$GLGSV,3,3,11,80,00,262,,65,00,029,,88,04,122,*56
$GPGGA,200334.0,4112.556373,N,07348.245923,W,1,06,1.2,156.1,M,-37.0,M,,*63
$GNGNS,200334.0,4112.556373,N,07348.245923,W,AA,09,1.2,156.1,-37.0,,*58
$GPVTG,317.4,T,317.4,M,0.0,N,0.0,K,A*23
$GPRMC,200334.0,A,4112.556373,N,07348.245923,W,0.0,317.4,300816,0.0,E,A*18
$GPGSA,A,2,02,05,06,09,12,19,,,,,,,1.5,1.2,0.9*3E
$GNGSA,A,2,02,05,06,09,12,19,,,,,,,1.5,1.2,0.9*20
$GNGSA,A,2,66,67,81,,,,,,,,,,1.5,1.2,0.9*2B
$GPGSV,3,1,12,02,72,001,29,05,55,223,31,06,41,073,37,09,22,053,22*7D
$GPGSV,3,2,12,12,33,246,30,17,06,137,17,19,27,136,31,25,26,289,13*71
$GPGSV,3,3,12,13,00,174,,20,03,230,,23,04,032,,29,16,313,*73
$GLGSV,3,1,11,66,53,042,20,82,60,343,13,83,09,313,10,81,53,101,39*68
$GLGSV,3,2,11,67,63,182,27,68,10,202,14,74,01,358,,73,07,312,*6B
$GLGSV,3,3,11,80,00,262,,65,00,029,,88,04,122,*56
$GPGGA,200335.0,4112.556372,N,07348.245924,W,1,06,1.2,156.1,M,-37.0,M,,*64
$GNGNS,200335.0,4112.556372,N,07348.245924,W,AA,09,1.2,156.1,-37.0,,*5F
$GPVTG,317.4,T,317.4,M,0.0,N,0.0,K,A*23
$GPRMC,200335.0,A,4112.556372,N,07348.245924,W,0.0,317.4,300816,0.0,E,A*1F
$GPGSA,A,2,02,05,06,09,12,19,,,,,,,1.5,1.2,0.9*3E
$GNGSA,A,2,02,05,06,09,12,19,,,,,,,1.5,1.2,0.9*20
$GNGSA,A,2,66,67,81,,,,,,,,,,1.5,1.2,0.9*2B
$GPGSV,3,1,12,02,72,001,30,05,55,223,31,06,41,073,38,09,22,053,21*79
$GPGSV,3,2,12,12,33,246,30,17,06,137,17,19,27,136,30,25,26,289,13*70
$GPGSV,3,3,12,13,00,174,,20,03,230,,23,04,032,,29,16,313,*73
$GLGSV,3,1,11,66,53,042,20,82,60,343,13,83,09,313,10,81,53,101,39*68
$GLGSV,3,2,11,67,63,182,28,68,10,202,14,74,01,358,,73,07,312,*64
$GLGSV,3,3,11,80,00,262,,65,00,029,,88,04,122,*56
$GPGGA,200336.0,4112.556372,N,07348.245923,W,1,06,1.2,156.1,M,-37.0,M,,*60
$GNGNS,200336.0,4112.556372,N,07348.245923,W,AA,09,1.2,156.1,-37.0,,*5B
$GPVTG,317.4,T,317.4,M,0.0,N,0.0,K,A*23
$GPRMC,200336.0,A,4112.556372,N,07348.245923,W,0.0,317.4,300816,0.0,E,A*1B
$GPGSA,A,2,02,05,06,09,12,19,,,,,,,1.5,1.2,0.9*3E
$GNGSA,A,2,02,05,06,09,12,19,,,,,,,1.5,1.2,0.9*20
$GNGSA,A,2,66,67,81,,,,,,,,,,1.5,1.2,0.9*2B
$GPGSV,3,1,12,02,72,001,28,05,55,223,31,06,41,073,37,09,22,053,22*7C
$GPGSV,3,2,12,12,33,246,30,17,06,137,16,19,27,136,30,25,26,289,13*71
$GPGSV,3,3,12,13,00,174,,20,03,230,,23,04,032,,29,16,313,*73
$GLGSV,3,1,11,66,52,040,19,82,60,343,13,83,09,313,10,81,53,101,39*61
$GLGSV,3,2,11,67,63,182,27,68,10,202,14,74,01,358,,73,07,312,*6B
$GLGSV,3,3,11,80,00,262,,65,00,029,,88,04,122,*56
$GPGGA,200337.0,4112.556372,N,07348.245924,W,1,06,1.2,156.1,M,-37.0,M,,*66
$GNGNS,200337.0,4112.556372,N,07348.245924,W,AA,09,1.2,156.1,-37.0,,*5D
$GPVTG,317.4,T,317.4,M,0.0,N,0.0,K,A*23
$GPRMC,200337.0,A,4112.556372,N,07348.245924,W,0.0,317.4,300816,0.0,E,A*1D
$GPGSA,A,2,02,05,06,09,12,19,,,,,,,1.5,1.2,0.9*3E
$GNGSA,A,2,02,05,06,09,12,19,,,,,,,1.5,1.2,0.9*20
$GNGSA,A,2,66,67,81,,,,,,,,,,1.5,1.2,0.9*2B
$GPGSV,3,1,12,02,72,001,29,05,55,223,31,06,41,073,37,09,22,053,20*7F
$GPGSV,3,2,12,12,33,246,29,17,06,137,18,19,27,136,31,20,03,230,12*77
$GPGSV,3,3,12,25,26,289,13,13,00,174,,23,04,032,,29,16,313,*71
$GLGSV,3,1,11,66,52,040,19,82,60,343,13,83,09,313,10,81,53,101,39*61
$GLGSV,3,2,11,67,63,182,28,68,10,202,14,74,01,358,,73,07,312,*64
$GLGSV,3,3,11,80,00,262,,65,00,029,,88,04,122,*56
$GPGGA,200338.0,4112.556371,N,07348.245923,W,1,06,1.2,156.1,M,-37.0,M,,*6D
$GNGNS,200338.0,4112.556371,N,07348.245923,W,AA,09,1.2,156.1,-37.0,,*56
$GPVTG,317.4,T,317.4,M,0.0,N,0.0,K,A*23
$GPRMC,200338.0,A,4112.556371,N,07348.245923,W,0.0,317.4,300816,0.0,E,A*16
$GPGSA,A,2,02,05,06,09,12,19,,,,,,,1.5,1.2,0.9*3E
$GNGSA,A,2,02,05,06,09,12,19,,,,,,,1.5,1.2,0.9*20
$GNGSA,A,2,66,67,81,,,,,,,,,,1.5,1.2,0.9*2B
$GPGSV,3,1,12,02,72,001,29,05,55,223,30,06,41,073,37,09,22,053,18*75
$GPGSV,3,2,12,12,33,246,29,17,06,137,18,19,27,136,31,20,03,230,12*77
$GPGSV,3,3,12,25,26,289,13,13,00,174,,23,04,032,,29,16,313,*71
$GLGSV,3,1,10,66,52,040,19,83,09,313,13,81,53,101,39,67,63,182,29*6D
$GLGSV,3,2,10,68,11,202,14,74,01,357,,73,07,312,,80,,,*56
$GLGSV,3,3,10,65,,,,88,04,123,*53
$GPGGA,200339.0,4112.556372,N,07348.245922,W,1,06,1.2,156.1,M,-37.0,M,,*6E
$GNGNS,200339.0,4112.556372,N,07348.245922,W,AA,09,1.2,156.1,-37.0,,*55
$GPVTG,317.4,T,317.4,M,0.0,N,0.0,K,A*23
$GPRMC,200339.0,A,4112.556372,N,07348.245922,W,0.0,317.4,300816,0.0,E,A*15
$GPGSA,A,2,02,05,06,09,12,19,,,,,,,1.5,1.2,0.9*3E
$GNGSA,A,2,02,05,06,09,12,19,,,,,,,1.5,1.2,0.9*20
$GNGSA,A,2,66,67,81,,,,,,,,,,1.5,1.2,0.9*2B
$GPGSV,3,1,12,02,72,001,29,05,55,223,30,06,41,073,37,09,22,053,19*74
$GPGSV,3,2,12,12,33,246,28,17,06,137,19,19,27,136,31,20,03,230,12*77
$GPGSV,3,3,12,25,26,289,13,13,00,174,,23,04,032,,29,16,313,*71
$GLGSV,3,1,11,66,52,040,21,83,09,313,14,81,53,101,39,67,63,182,29*60
$GLGSV,3,2,11,68,11,202,14,74,01,357,,73,07,312,,82,60,343,*67
$GLGSV,3,3,11,80,,,,65,,,,88,04,123,*5A
$GPGGA,200340.0,4112.556372,N,07348.245922,W,1,06,1.2,156.1,M,-37.0,M,,*60
$GNGNS,200340.0,4112.556372,N,07348.245922,W,AA,09,1.2,156.1,-37.0,,*5B
$GPVTG,317.4,T,317.4,M,0.0,N,0.0,K,A*23
$GPRMC,200340.0,A,4112.556372,N,07348.245922,W,0.0,317.4,300816,0.0,E,A*1B
$GPGSA,A,2,02,05,06,09,12,19,,,,,,,1.5,1.2,0.9*3E
$GNGSA,A,2,02,05,06,09,12,19,,,,,,,1.5,1.2,0.9*20
$GNGSA,A,2,66,67,81,,,,,,,,,,1.5,1.2,0.9*2B
$GPGSV,3,1,12,02,72,001,29,05,55,223,30,06,41,073,37,09,22,053,19*74
$GPGSV,3,2,12,12,33,246,29,17,06,137,19,19,27,136,31,20,03,230,12*76
$GPGSV,3,3,12,25,26,289,13,29,16,313,13,13,00,174,,23,04,032,*73
$GLGSV,3,1,11,66,52,040,20,83,09,313,14,81,53,101,39,67,63,182,28*60
$GLGSV,3,2,11,68,11,202,14,74,01,357,,73,07,312,,82,60,343,*67
$GLGSV,3,3,11,80,,,,65,,,,88,04,123,*5A
$GPGGA,200341.0,4112.556372,N,07348.245921,W,1,06,1.2,156.1,M,-37.0,M,,*62
$GNGNS,200341.0,4112.556372,N,07348.245921,W,AA,09,1.2,156.1,-37.0,,*59
$GPVTG,317.4,T,317.4,M,0.0,N,0.0,K,A*23
$GPRMC,200341.0,A,4112.556372,N,07348.245921,W,0.0,317.4,300816,0.0,E,A*19
$GPGSA,A,2,02,05,06,09,12,19,,,,,,,1.5,1.2,0.9*3E
$GNGSA,A,2,02,05,06,09,12,19,,,,,,,1.5,1.2,0.9*20
$GNGSA,A,2,66,67,81,,,,,,,,,,1.5,1.2,0.9*2B
$GPGSV,3,1,12,02,72,001,30,05,55,223,30,06,41,073,37,09,22,053,17*72
$GPGSV,3,2,12,12,33,246,29,17,06,137,19,19,27,136,31,20,03,230,12*76
$GPGSV,3,3,12,25,26,289,13,29,16,313,13,13,00,174,,23,04,032,*73
$GLGSV,3,1,11,66,52,040,21,83,09,313,14,81,53,101,39,67,63,182,28*61
$GLGSV,3,2,11,68,11,202,14,74,01,357,,73,07,312,,82,60,343,*67
$GLGSV,3,3,11,80,,,,65,,,,88,04,123,*5A
$GPGGA,200342.0,4112.556372,N,07348.245921,W,1,06,1.2,156.1,M,-37.0,M,,*61
$GNGNS,200342.0,4112.556372,N,07348.245921,W,AA,09,1.2,156.1,-37.0,,*5A
$GPVTG,317.4,T,317.4,M,0.0,N,0.0,K,A*23
$GPRMC,200342.0,A,4112.556372,N,07348.245921,W,0.0,317.4,300816,0.0,E,A*1A
$GPGSA,A,2,02,05,06,09,12,19,,,,,,,1.5,1.2,0.9*3E
$GNGSA,A,2,02,05,06,09,12,19,,,,,,,1.5,1.2,0.9*20
$GNGSA,A,2,66,67,81,,,,,,,,,,1.5,1.2,0.9*2B
$GPGSV,3,1,12,02,72,001,29,05,55,223,30,06,41,073,37,09,22,053,17*7A
$GPGSV,3,2,12,12,33,246,29,17,06,137,17,19,27,136,31,20,03,230,12*78
$GPGSV,3,3,12,25,26,289,13,29,16,313,13,13,00,174,,23,04,032,*73
$GLGSV,3,1,11,66,52,040,20,83,09,313,13,81,53,101,39,67,63,182,28*67
$GLGSV,3,2,11,68,11,202,14,74,01,357,,73,07,312,,82,60,343,*67
$GLGSV,3,3,11,80,,,,65,,,,88,04,123,*5A
$GPGGA,200343.0,4112.556372,N,07348.245920,W,1,06,1.2,156.1,M,-37.0,M,,*61
$GNGNS,200343.0,4112.556372,N,07348.245920,W,AA,09,1.2,156.1,-37.0,,*5A
$GPVTG,317.4,T,317.4,M,0.0,N,0.0,K,A*23
$GPRMC,200343.0,A,4112.556372,N,07348.245920,W,0.0,317.4,300816,0.0,E,A*1A
$GPGSA,A,2,02,05,06,09,12,19,,,,,,,1.5,1.2,0.9*3E
$GNGSA,A,2,02,05,06,09,12,19,,,,,,,1.5,1.2,0.9*20
$GNGSA,A,2,66,67,81,,,,,,,,,,1.5,1.2,0.9*2B
$GPGSV,3,1,12,02,72,001,29,05,55,223,30,06,41,073,38,09,22,053,18*7A
$GPGSV,3,2,12,12,33,246,30,17,06,137,17,19,27,136,31,20,03,230,12*70
$GPGSV,3,3,12,25,26,289,13,29,16,313,12,13,00,174,,23,04,032,*72
$GLGSV,3,1,11,66,52,040,21,83,09,313,13,81,53,101,39,67,63,182,28*66
$GLGSV,3,2,11,68,11,202,14,74,01,357,,73,07,312,,82,60,343,*67
$GLGSV,3,3,11,80,,,,65,,,,88,04,123,*5A
$GPGGA,200344.0,4112.556372,N,07348.245919,W,1,06,1.2,156.1,M,-37.0,M,,*6C
$GNGNS,200344.0,4112.556372,N,07348.245919,W,AA,09,1.2,156.1,-37.0,,*57
$GPVTG,317.4,T,317.4,M,0.0,N,0.0,K,A*23
$GPRMC,200344.0,A,4112.556372,N,07348.245919,W,0.0,317.4,300816,0.0,E,A*17
$GPGSA,A,2,02,05,06,09,12,19,,,,,,,1.5,1.2,0.9*3E
$GNGSA,A,2,02,05,06,09,12,19,,,,,,,1.5,1.2,0.9*20
$GNGSA,A,2,66,67,81,,,,,,,,,,1.5,1.2,0.9*2B
$GPGSV,3,1,12,02,72,001,29,05,55,223,30,06,41,073,38,09,22,053,17*75
$GPGSV,3,2,12,12,33,246,29,17,06,137,17,19,27,136,31,20,03,230,12*78
$GPGSV,3,3,12,25,26,289,13,29,16,313,12,13,00,174,,23,04,032,*72
$GLGSV,3,1,11,66,52,040,20,83,09,313,13,81,53,101,39,67,63,182,29*66
$GLGSV,3,2,11,68,11,202,14,74,01,357,,73,07,312,,82,60,343,*67
$GLGSV,3,3,11,80,,,,65,,,,88,04,123,*5A
$GPGGA,200345.0,4112.556372,N,07348.245918,W,1,05,1.3,156.1,M,-37.0,M,,*6E
$GNGNS,200345.0,4112.556372,N,07348.245918,W,AA,08,1.3,156.1,-37.0,,*57
$GPVTG,317.4,T,317.4,M,0.0,N,0.0,K,A*23
$GPRMC,200345.0,A,4112.556372,N,07348.245918,W,0.0,317.4,300816,0.0,E,A*17
$GPGSA,A,2,02,05,06,12,19,,,,,,,,1.6,1.3,0.9*35
$GNGSA,A,2,02,05,06,12,19,,,,,,,,1.6,1.3,0.9*2B
$GNGSA,A,2,66,67,81,,,,,,,,,,1.6,1.3,0.9*29
$GPGSV,3,1,12,02,72,001,29,05,55,223,30,06,41,073,37,09,22,053,18*75
$GPGSV,3,2,12,12,33,246,30,17,06,137,17,19,27,136,31,20,03,230,13*71
$GPGSV,3,3,12,25,26,289,13,29,16,313,12,13,00,174,,23,04,032,*72
$GLGSV,3,1,11,66,52,040,21,83,09,313,13,81,53,101,39,67,63,182,28*66
$GLGSV,3,2,11,68,11,202,14,74,01,357,,73,07,312,,82,60,343,*67
$GLGSV,3,3,11,80,,,,65,,,,88,04,123,*5A
$GPGGA,200346.0,4112.556371,N,07348.245917,W,1,05,1.3,156.1,M,-37.0,M,,*61
$GNGNS,200346.0,4112.556371,N,07348.245917,W,AA,08,1.3,156.1,-37.0,,*58
$GPVTG,317.4,T,317.4,M,0.0,N,0.0,K,A*23
$GPRMC,200346.0,A,4112.556371,N,07348.245917,W,0.0,317.4,300816,0.0,E,A*18
$GPGSA,A,2,02,05,06,12,19,,,,,,,,1.6,1.3,0.9*35
$GNGSA,A,2,02,05,06,12,19,,,,,,,,1.6,1.3,0.9*2B
$GNGSA,A,2,66,67,81,,,,,,,,,,1.6,1.3,0.9*29
$GPGSV,3,1,12,02,72,001,30,05,55,223,30,06,41,073,38,09,22,053,18*72
$GPGSV,3,2,12,12,33,246,31,17,06,137,16,19,27,136,31,20,03,230,13*71
$GPGSV,3,3,12,25,26,289,13,29,16,313,12,13,00,174,,23,04,032,*72
$GLGSV,3,1,11,66,52,040,19,83,09,313,13,81,53,101,39,67,63,182,28*6D
$GLGSV,3,2,11,68,11,202,11,74,01,357,,73,07,312,,82,60,343,*62
$GLGSV,3,3,11,80,,,,65,,,,88,04,123,*5A
$GPGGA,200347.0,4112.556371,N,07348.245916,W,1,05,1.3,156.1,M,-37.0,M,,*61
$GNGNS,200347.0,4112.556371,N,07348.245916,W,AA,08,1.3,156.1,-37.0,,*58
$GPVTG,317.4,T,317.4,M,0.0,N,0.0,K,A*23
$GPRMC,200347.0,A,4112.556371,N,07348.245916,W,0.0,317.4,300816,0.0,E,A*18
$GPGSA,A,2,02,05,06,12,19,,,,,,,,1.6,1.3,0.9*35
$GNGSA,A,2,02,05,06,12,19,,,,,,,,1.6,1.3,0.9*2B
$GNGSA,A,2,66,67,81,,,,,,,,,,1.6,1.3,0.9*29
$GPGSV,3,1,12,02,72,001,31,05,55,223,30,06,41,073,39,09,22,053,15*7F
$GPGSV,3,2,12,12,33,246,29,17,06,137,16,19,27,136,31,20,03,230,16*7D
$GPGSV,3,3,12,25,26,289,13,29,16,313,12,13,00,174,,23,04,032,*72
$GLGSV,3,1,11,66,52,040,21,83,09,313,13,81,53,101,39,67,63,182,27*69
$GLGSV,3,2,11,68,11,202,11,74,01,357,,73,07,312,,82,60,343,*62
$GLGSV,3,3,11,80,,,,65,,,,88,04,123,*5A
$GPGGA,200348.0,4112.556372,N,07348.245916,W,1,05,1.3,156.1,M,-37.0,M,,*6D
$GNGNS,200348.0,4112.556372,N,07348.245916,W,AA,08,1.3,156.1,-37.0,,*54
$GPVTG,317.4,T,317.4,M,0.0,N,0.0,K,A*23
$GPRMC,200348.0,A,4112.556372,N,07348.245916,W,0.0,317.4,300816,0.0,E,A*14
$GPGSA,A,2,02,05,06,12,19,,,,,,,,1.6,1.3,0.9*35
$GNGSA,A,2,02,05,06,12,19,,,,,,,,1.6,1.3,0.9*2B
$GNGSA,A,2,66,67,81,,,,,,,,,,1.6,1.3,0.9*29
$GPGSV,3,1,12,02,72,001,31,05,55,223,30,06,41,073,39,09,22,053,15*7F
$GPGSV,3,2,12,12,33,246,30,17,06,137,16,19,27,136,31,20,03,230,16*75
$GPGSV,3,3,12,25,26,289,13,29,16,313,15,13,00,174,,23,04,032,*75
$GLGSV,3,1,11,66,52,040,30,83,09,313,13,81,53,101,40,67,63,182,27*67
$GLGSV,3,2,11,68,11,202,11,74,01,357,,73,07,312,,82,60,343,*62
$GLGSV,3,3,11,80,,,,65,,,,88,04,123,*5A
$GPGGA,200349.0,4112.556373,N,07348.245915,W,1,05,1.3,156.1,M,-37.0,M,,*6E
$GNGNS,200349.0,4112.556373,N,07348.245915,W,AA,08,1.3,156.1,-37.0,,*57
$GPVTG,317.4,T,317.4,M,0.0,N,0.0,K,A*23
$GPRMC,200349.0,A,4112.556373,N,07348.245915,W,0.0,317.4,300816,0.0,E,A*17
$GPGSA,A,2,02,05,06,12,19,,,,,,,,1.6,1.3,0.9*35
$GNGSA,A,2,02,05,06,12,19,,,,,,,,1.6,1.3,0.9*2B
$GNGSA,A,2,66,67,81,,,,,,,,,,1.6,1.3,0.9*29
$GPGSV,3,1,12,02,72,001,30,05,55,223,28,06,41,073,38,09,22,053,15*76
$GPGSV,3,2,12,12,33,246,31,17,06,137,16,19,27,136,31,20,03,230,16*74
$GPGSV,3,3,12,25,26,289,13,29,16,313,15,13,00,174,,23,04,032,*75
$GLGSV,3,1,11,66,52,040,34,83,09,313,15,81,53,101,40,67,63,182,27*65
$GLGSV,3,2,11,68,11,202,17,74,01,357,,73,07,312,,82,60,343,*64
$GLGSV,3,3,11,80,,,,65,,,,88,04,123,*5A
$GPGGA,200350.0,4112.556373,N,07348.245914,W,1,05,1.3,156.1,M,-37.0,M,,*67
$GNGNS,200350.0,4112.556373,N,07348.245914,W,AA,08,1.3,156.1,-37.0,,*5E
$GPVTG,317.4,T,317.4,M,0.0,N,0.0,K,A*23
$GPRMC,200350.0,A,4112.556373,N,07348.245914,W,0.0,317.4,300816,0.0,E,A*1E
$GPGSA,A,2,02,05,06,12,19,,,,,,,,1.6,1.3,0.9*35
$GNGSA,A,2,02,05,06,12,19,,,,,,,,1.6,1.3,0.9*2B
$GNGSA,A,2,66,67,81,,,,,,,,,,1.6,1.3,0.9*29
$GPGSV,3,1,12,02,72,001,31,05,55,223,28,06,41,073,36,09,22,053,15*79
$GPGSV,3,2,12,12,33,246,31,17,06,137,16,19,27,136,31,20,03,230,15*77
$GPGSV,3,3,12,25,26,289,13,29,16,313,15,13,00,174,,23,04,032,*75
$GLGSV,3,1,11,66,52,040,32,83,09,313,15,81,53,101,38,67,63,182,28*63
$GLGSV,3,2,11,68,11,202,19,74,01,357,,73,07,312,,82,60,343,*6A
$GLGSV,3,3,11,80,,,,65,,,,88,04,123,*5A
$GPGGA,200351.0,4112.556372,N,07348.245912,W,1,05,1.3,156.1,M,-37.0,M,,*61
$GNGNS,200351.0,4112.556372,N,07348.245912,W,AA,08,1.3,156.1,-37.0,,*58
$GPVTG,317.4,T,317.4,M,0.0,N,0.0,K,A*23
$GPRMC,200351.0,A,4112.556372,N,07348.245912,W,0.0,317.4,300816,0.0,E,A*18
$GPGSA,A,2,02,05,06,12,19,,,,,,,,1.6,1.3,0.9*35
$GNGSA,A,2,02,05,06,12,19,,,,,,,,1.6,1.3,0.9*2B
$GNGSA,A,2,66,67,81,,,,,,,,,,1.6,1.3,0.9*29
$GPGSV,3,1,12,02,72,001,30,05,55,223,26,06,41,073,38,09,22,053,15*78
$GPGSV,3,2,12,12,33,246,31,17,06,137,16,19,27,136,24,20,03,230,15*73
$GPGSV,3,3,12,25,26,289,13,29,16,313,16,13,00,174,,23,04,032,*76
$GLGSV,3,1,11,66,52,040,33,82,60,343,23,83,09,313,15,81,53,101,38*6E
$GLGSV,3,2,11,67,63,182,27,68,11,202,18,74,01,357,,73,07,312,*69
$GLGSV,3,3,11,80,,,,65,,,,88,04,123,*5A
$GPGGA,200352.0,4112.556373,N,07348.245912,W,1,05,1.2,156.1,M,-37.0,M,,*62
$GNGNS,200352.0,4112.556373,N,07348.245912,W,AA,09,1.2,156.1,-37.0,,*5A
$GPVTG,317.4,T,317.4,M,0.0,N,0.0,K,A*23
$GPRMC,200352.0,A,4112.556373,N,07348.245912,W,0.0,317.4,300816,0.0,E,A*1A
$GPGSA,A,2,02,05,06,12,19,,,,,,,,1.5,1.2,0.9*37
$GNGSA,A,2,02,05,06,12,19,,,,,,,,1.5,1.2,0.9*29
$GNGSA,A,2,66,67,81,82,,,,,,,,,1.5,1.2,0.9*21
$GPGSV,3,1,12,02,72,001,30,05,55,223,29,06,41,073,38,09,22,053,15*77
$GPGSV,3,2,12,12,33,246,33,17,06,137,16,19,27,136,22,20,03,230,15*77
$GPGSV,3,3,12,29,16,313,16,13,00,174,,23,04,032,,25,26,289,*74
$GLGSV,3,1,11,66,52,040,32,82,60,343,27,83,09,313,16,81,53,101,40*67
$GLGSV,3,2,11,67,63,182,28,68,11,202,20,74,01,357,,73,07,312,*6D
$GLGSV,3,3,11,80,,,,65,,,,88,04,123,*5A
$GPGGA,200353.0,4112.556373,N,07348.245910,W,1,05,1.2,156.1,M,-37.0,M,,*61
$GNGNS,200353.0,4112.556373,N,07348.245910,W,AA,09,1.2,156.1,-37.0,,*59
$GPVTG,317.4,T,317.4,M,0.0,N,0.0,K,A*23
$GPRMC,200353.0,A,4112.556373,N,07348.245910,W,0.0,317.4,300816,0.0,E,A*19
$GPGSA,A,2,02,05,06,12,19,,,,,,,,1.5,1.2,0.9*37
$GNGSA,A,2,02,05,06,12,19,,,,,,,,1.5,1.2,0.9*29
$GNGSA,A,2,66,67,81,82,,,,,,,,,1.5,1.2,0.9*21
$GPGSV,3,1,12,02,72,001,30,05,55,223,28,06,41,073,38,09,22,053,15*76
$GPGSV,3,2,12,12,33,246,32,17,06,137,16,19,27,136,24,20,03,230,15*70
$GPGSV,3,3,12,29,16,313,16,13,00,174,,23,04,032,,25,26,289,*74
$GLGSV,3,1,11,66,52,040,33,82,60,343,26,83,09,313,16,81,53,101,40*67
$GLGSV,3,2,11,67,63,182,27,68,11,202,21,74,01,357,,73,07,312,*63
$GLGSV,3,3,11,80,,,,65,,,,88,04,123,*5A
$GPGGA,200354.0,4112.556373,N,07348.245909,W,1,05,1.1,156.1,M,-37.0,M,,*6D
$GNGNS,200354.0,4112.556373,N,07348.245909,W,AA,10,1.1,156.1,-37.0,,*5D
$GPVTG,317.4,T,317.4,M,0.0,N,0.0,K,A*23
$GPRMC,200354.0,A,4112.556373,N,07348.245909,W,0.0,317.4,300816,0.0,E,A*16
$GPGSA,A,2,02,05,06,12,19,,,,,,,,1.4,1.1,0.9*35
$GNGSA,A,2,02,05,06,12,19,,,,,,,,1.4,1.1,0.9*2B
$GNGSA,A,2,66,67,68,81,82,,,,,,,,1.4,1.1,0.9*2D
$GPGSV,3,1,12,02,72,001,31,05,55,223,29,06,41,073,37,09,22,053,15*79
$GPGSV,3,2,12,12,33,246,31,17,06,137,16,19,27,136,28,20,03,230,15*7F
$GPGSV,3,3,12,29,16,313,18,13,00,174,,23,04,032,,25,26,289,*7A
$GLGSV,3,1,11,66,52,040,32,82,60,343,26,83,09,313,16,81,53,101,40*66
$GLGSV,3,2,11,67,63,182,28,68,11,202,20,74,01,357,,73,07,312,*6D
$GLGSV,3,3,11,80,,,,65,,,,88,04,123,*5A
$GPGGA,200355.0,4112.556373,N,07348.245909,W,1,05,1.1,156.1,M,-37.0,M,,*6C
$GNGNS,200355.0,4112.556373,N,07348.245909,W,AA,10,1.1,156.1,-37.0,,*5C
$GPVTG,317.4,T,317.4,M,0.0,N,0.0,K,A*23
$GPRMC,200355.0,A,4112.556373,N,07348.245909,W,0.0,317.4,300816,0.0,E,A*17
$GPGSA,A,2,02,05,06,12,19,,,,,,,,1.4,1.1,0.9*35
$GNGSA,A,2,02,05,06,12,19,,,,,,,,1.4,1.1,0.9*2B
$GNGSA,A,2,66,67,68,81,82,,,,,,,,1.4,1.1,0.9*2D
$GPGSV,3,1,12,02,72,001,31,05,55,223,28,06,41,073,37,09,22,053,15*78
$GPGSV,3,2,12,12,33,246,31,17,06,137,16,19,27,136,23,20,03,230,15*74
$GPGSV,3,3,12,29,16,313,18,13,00,174,,23,04,032,,25,26,289,*7A
$GLGSV,3,1,11,66,52,040,32,82,60,343,26,83,09,313,16,81,53,101,38*69
$GLGSV,3,2,11,67,63,182,27,68,11,202,21,74,01,357,,73,07,312,*63
$GLGSV,3,3,11,80,,,,65,,,,88,04,123,*5A
$GPGGA,200356.0,4112.556374,N,07348.245908,W,1,05,1.1,156.1,M,-37.0,M,,*69
$GNGNS,200356.0,4112.556374,N,07348.245908,W,AA,10,1.1,156.1,-37.0,,*59
$GPVTG,317.4,T,317.4,M,0.0,N,0.0,K,A*23
$GPRMC,200356.0,A,4112.556374,N,07348.245908,W,0.0,317.4,300816,0.0,E,A*12
$GPGSA,A,2,02,05,06,12,19,,,,,,,,1.4,1.1,0.9*35
$GNGSA,A,2,02,05,06,12,19,,,,,,,,1.4,1.1,0.9*2B
$GNGSA,A,2,66,67,68,81,82,,,,,,,,1.4,1.1,0.9*2D
$GPGSV,3,1,12,02,72,001,29,05,55,223,30,06,41,073,35,09,22,053,15*7A
$GPGSV,3,2,12,12,33,246,29,17,06,137,16,19,27,136,23,20,03,230,15*7D
$GPGSV,3,3,12,29,16,313,18,13,00,174,,23,04,032,,25,26,289,*7A
$GLGSV,3,1,11,66,52,040,34,82,60,343,27,83,09,313,15,81,53,101,37*62
$GLGSV,3,2,11,67,63,182,24,68,11,202,21,74,01,357,,73,07,312,*60
$GLGSV,3,3,11,80,,,,65,,,,88,04,123,*5A
$GPGGA,200357.0,4112.556374,N,07348.245908,W,1,05,1.1,156.1,M,-37.0,M,,*68
$GNGNS,200357.0,4112.556374,N,07348.245908,W,AA,10,1.1,156.1,-37.0,,*58
$GPVTG,317.4,T,317.4,M,0.0,N,0.0,K,A*23
$GPRMC,200357.0,A,4112.556374,N,07348.245908,W,0.0,317.4,300816,0.0,E,A*13
$GPGSA,A,2,02,05,06,12,19,,,,,,,,1.4,1.1,0.9*35
$GNGSA,A,2,02,05,06,12,19,,,,,,,,1.4,1.1,0.9*2B
$GNGSA,A,2,66,67,68,81,82,,,,,,,,1.4,1.1,0.9*2D
$GPGSV,3,1,12,02,72,001,28,05,55,223,29,06,41,073,34,09,22,053,15*72
$GPGSV,3,2,12,12,33,246,31,17,06,137,16,19,27,136,21,20,03,230,15*76
$GPGSV,3,3,12,29,16,313,18,13,00,174,,23,04,032,,25,26,289,*7A
$GLGSV,3,1,11,66,52,040,34,82,60,343,27,83,09,313,15,81,53,101,37*62
$GLGSV,3,2,11,67,63,182,22,68,11,202,23,74,01,357,,73,07,312,*64
$GLGSV,3,3,11,80,,,,65,,,,88,04,123,*5A
$GPGGA,200358.0,4112.556373,N,07348.245908,W,1,05,1.1,156.1,M,-37.0,M,,*60
$GNGNS,200358.0,4112.556373,N,07348.245908,W,AA,10,1.1,156.1,-37.0,,*50
$GPVTG,317.4,T,317.4,M,0.0,N,0.0,K,A*23
$GPRMC,200358.0,A,4112.556373,N,07348.245908,W,0.0,317.4,300816,0.0,E,A*1B
$GPGSA,A,2,02,05,06,12,19,,,,,,,,1.4,1.1,0.9*35
$GNGSA,A,2,02,05,06,12,19,,,,,,,,1.4,1.1,0.9*2B
$GNGSA,A,2,66,67,68,81,82,,,,,,,,1.4,1.1,0.9*2D
$GPGSV,3,1,12,02,72,001,31,05,55,223,31,06,41,073,34,09,22,053,15*73
$GPGSV,3,2,12,12,33,246,24,17,06,137,16,19,27,136,25,20,03,230,15*76
$GPGSV,3,3,12,29,16,313,17,13,00,174,,23,04,032,,25,26,289,*75
$GLGSV,3,1,11,66,52,040,36,82,60,343,23,83,09,313,15,81,53,101,40*64
$GLGSV,3,2,11,67,63,182,26,68,11,202,21,74,01,357,,73,07,312,*62
$GLGSV,3,3,11,80,,,,65,,,,88,04,123,*5A
$GPGGA,200359.0,4112.556373,N,07348.245908,W,1,05,1.1,156.1,M,-37.0,M,,*61
$GNGNS,200359.0,4112.556373,N,07348.245908,W,AA,10,1.1,156.1,-37.0,,*51
$GPVTG,317.4,T,317.4,M,0.0,N,0.0,K,A*23
$GPRMC,200359.0,A,4112.556373,N,07348.245908,W,0.0,317.4,300816,0.0,E,A*1A
$GPGSA,A,2,02,05,06,12,19,,,,,,,,1.4,1.1,0.9*35
$GNGSA,A,2,02,05,06,12,19,,,,,,,,1.4,1.1,0.9*2B
$GNGSA,A,2,66,67,68,81,82,,,,,,,,1.4,1.1,0.9*2D
$GPGSV,3,1,12,02,72,001,29,05,55,223,31,06,41,073,32,09,22,053,11*78
$GPGSV,3,2,12,12,33,246,25,17,06,137,16,19,27,136,25,20,03,230,14*76
$GPGSV,3,3,12,29,16,313,17,13,00,174,,23,04,032,,25,26,289,*75
$GLGSV,3,1,11,66,52,040,36,82,60,343,25,83,09,313,15,81,53,101,40*62
$GLGSV,3,2,11,67,63,182,25,68,11,202,19,74,01,357,,73,07,312,*6A
$GLGSV,3,3,11,80,,,,65,,,,88,04,123,*5A
$GPGGA,200400.0,4112.556373,N,07348.245908,W,1,05,1.1,156.1,M,-37.0,M,,*6A
$GNGNS,200400.0,4112.556373,N,07348.245908,W,AA,10,1.1,156.1,-37.0,,*5A
$GPVTG,317.4,T,317.4,M,0.0,N,0.0,K,A*23
$GPRMC,200400.0,A,4112.556373,N,07348.245908,W,0.0,317.4,300816,0.0,E,A*11
$GPGSA,A,2,02,05,06,12,19,,,,,,,,1.4,1.1,0.9*35
$GNGSA,A,2,02,05,06,12,19,,,,,,,,1.4,1.1,0.9*2B
$GNGSA,A,2,66,67,68,81,82,,,,,,,,1.4,1.1,0.9*2D
$GPGSV,3,1,12,02,72,001,27,05,55,223,31,06,41,073,32,09,22,053,11*76
$GPGSV,3,2,12,12,33,246,30,17,06,137,10,19,27,136,27,20,03,230,14*76
$GPGSV,3,3,12,29,16,313,17,13,00,174,,23,04,032,,25,26,289,*75
$GLGSV,3,1,11,66,52,040,35,82,60,343,24,83,09,313,15,81,53,101,38*6F
$GLGSV,3,2,11,67,63,182,21,68,11,202,19,74,01,357,,73,07,312,*6E
$GLGSV,3,3,11,80,,,,65,,,,88,04,123,*5A
$GPGGA,200401.0,4112.556371,N,07348.245909,W,1,05,1.1,156.1,M,-37.0,M,,*68
$GNGNS,200401.0,4112.556371,N,07348.245909,W,AA,10,1.1,156.1,-37.0,,*58
$GPVTG,317.4,T,317.4,M,0.0,N,0.0,K,A*23
$GPRMC,200401.0,A,4112.556371,N,07348.245909,W,0.0,317.4,300816,0.0,E,A*13
$GPGSA,A,2,02,05,06,12,19,,,,,,,,1.4,1.1,0.9*35
$GNGSA,A,2,02,05,06,12,19,,,,,,,,1.4,1.1,0.9*2B
$GNGSA,A,2,66,67,68,81,82,,,,,,,,1.4,1.1,0.9*2D
$GPGSV,3,1,12,02,72,001,30,05,55,223,31,06,41,073,32,09,22,053,11*70
$GPGSV,3,2,12,12,33,246,25,17,06,137,10,19,27,136,26,20,03,230,14*73
$GPGSV,3,3,12,29,16,313,17,13,00,174,,23,04,032,,25,26,289,*75
$GLGSV,3,1,11,66,52,040,36,82,60,343,23,83,09,313,17,81,53,101,40*66
$GLGSV,3,2,11,67,63,182,25,68,11,202,18,74,01,357,,73,07,312,*6B
$GLGSV,3,3,11,80,,,,65,,,,88,04,123,*5A
$GPGGA,200402.0,4112.556372,N,07348.245910,W,1,05,1.1,156.1,M,-37.0,M,,*60
$GNGNS,200402.0,4112.556372,N,07348.245910,W,AA,10,1.1,156.1,-37.0,,*50
$GPVTG,317.4,T,317.4,M,0.0,N,0.0,K,A*23
$GPRMC,200402.0,A,4112.556372,N,07348.245910,W,0.0,317.4,300816,0.0,E,A*1B
$GPGSA,A,2,02,05,06,12,19,,,,,,,,1.4,1.1,0.9*35
$GNGSA,A,2,02,05,06,12,19,,,,,,,,1.4,1.1,0.9*2B
$GNGSA,A,2,66,67,68,81,82,,,,,,,,1.4,1.1,0.9*2D
$GPGSV,3,1,12,02,72,001,31,05,55,223,31,06,41,073,35,09,22,053,11*76
$GPGSV,3,2,12,12,33,246,25,17,06,137,10,19,27,136,25,20,03,230,14*70
$GPGSV,3,3,12,29,16,313,17,13,00,174,,23,04,032,,25,26,289,*75
$GLGSV,3,1,11,66,52,040,38,82,60,343,18,83,09,313,17,81,53,101,39*6E
$GLGSV,3,2,11,67,63,182,22,68,11,202,18,74,01,357,,73,07,312,*6C
$GLGSV,3,3,11,80,,,,65,,,,88,04,123,*5A
$GPGGA,200403.0,4112.556372,N,07348.245911,W,1,05,1.1,156.1,M,-37.0,M,,*60
$GNGNS,200403.0,4112.556372,N,07348.245911,W,AA,10,1.1,156.1,-37.0,,*50
$GPVTG,317.4,T,317.4,M,0.0,N,0.0,K,A*23
$GPRMC,200403.0,A,4112.556372,N,07348.245911,W,0.0,317.4,300816,0.0,E,A*1B
$GPGSA,A,2,02,05,06,12,19,,,,,,,,1.4,1.1,0.9*35
$GNGSA,A,2,02,05,06,12,19,,,,,,,,1.4,1.1,0.9*2B
$GNGSA,A,2,66,67,68,81,82,,,,,,,,1.4,1.1,0.9*2D
$GPGSV,3,1,12,02,72,001,31,05,55,223,30,06,41,073,33,09,22,053,11*71
$GPGSV,3,2,12,12,33,246,25,17,06,137,10,19,27,136,24,20,03,230,14*71
$GPGSV,3,3,12,29,16,313,17,13,00,174,,23,04,032,,25,26,289,*75
$GLGSV,3,1,11,66,52,040,37,82,60,343,21,83,09,313,17,81,53,101,39*6B
$GLGSV,3,2,11,67,63,182,24,68,11,202,19,74,01,357,,73,07,312,*6B
$GLGSV,3,3,11,80,,,,65,,,,88,04,123,*5A
$GPGGA,200404.0,4112.556373,N,07348.245911,W,1,05,1.1,156.1,M,-37.0,M,,*66
$GNGNS,200404.0,4112.556373,N,07348.245911,W,AA,10,1.1,156.1,-37.0,,*56
$GPVTG,317.4,T,317.4,M,0.0,N,0.0,K,A*23
$GPRMC,200404.0,A,4112.556373,N,07348.245911,W,0.0,317.4,300816,0.0,E,A*1D
$GPGSA,A,2,02,05,06,12,19,,,,,,,,1.4,1.1,0.9*35
$GNGSA,A,2,02,05,06,12,19,,,,,,,,1.4,1.1,0.9*2B
$GNGSA,A,2,66,67,68,81,82,,,,,,,,1.4,1.1,0.9*2D
$GPGSV,3,1,12,02,72,001,31,05,55,223,30,06,41,073,34,09,22,053,11*76
$GPGSV,3,2,12,12,33,246,23,17,06,137,10,19,27,136,26,20,03,230,14*75
$GPGSV,3,3,12,29,16,313,17,13,00,174,,23,04,032,,25,26,289,*75
$GLGSV,3,1,11,66,52,040,37,82,60,343,21,83,09,313,17,81,53,101,40*65
$GLGSV,3,2,11,67,63,182,23,68,11,202,19,74,01,357,,73,07,312,*6C
$GLGSV,3,3,11,80,,,,65,,,,88,04,123,*5A
$GPGGA,200405.0,4112.556372,N,07348.245913,W,1,05,1.1,156.1,M,-37.0,M,,*64
$GNGNS,200405.0,4112.556372,N,07348.245913,W,AA,10,1.1,156.1,-37.0,,*54
$GPVTG,317.4,T,317.4,M,0.0,N,0.0,K,A*23
$GPRMC,200405.0,A,4112.556372,N,07348.245913,W,0.0,317.4,300816,0.0,E,A*1F
$GPGSA,A,2,02,05,06,12,19,,,,,,,,1.4,1.1,0.9*35
$GNGSA,A,2,02,05,06,12,19,,,,,,,,1.4,1.1,0.9*2B
$GNGSA,A,2,66,67,68,81,82,,,,,,,,1.4,1.1,0.9*2D
$GPGSV,3,1,12,02,72,001,31,05,55,223,29,06,41,073,33,09,22,053,14*7C
$GPGSV,3,2,12,12,33,246,23,17,06,137,10,19,27,136,25,20,03,230,14*76
$GPGSV,3,3,12,29,16,313,17,13,00,174,,23,04,032,,25,26,289,*75
$GLGSV,3,1,11,66,52,040,39,82,60,343,21,83,09,313,17,81,53,101,40*6B
$GLGSV,3,2,11,67,63,182,23,68,11,202,19,74,01,357,,73,07,312,*6C
$GLGSV,3,3,11,80,,,,65,,,,88,04,123,*5A
$GPGGA,200406.0,4112.556371,N,07348.245913,W,1,05,1.2,156.1,M,-37.0,M,,*67
$GNGNS,200406.0,4112.556371,N,07348.245913,W,AA,09,1.2,156.1,-37.0,,*5F
$GPVTG,317.4,T,317.4,M,0.0,N,0.0,K,A*23
$GPRMC,200406.0,A,4112.556371,N,07348.245913,W,0.0,317.4,300816,0.0,E,A*1F
$GPGSA,A,2,02,05,06,12,19,,,,,,,,1.5,1.2,0.9*37
$GNGSA,A,2,02,05,06,12,19,,,,,,,,1.5,1.2,0.9*29
$GNGSA,A,2,66,67,81,82,,,,,,,,,1.5,1.2,0.9*21
$GPGSV,3,1,12,02,72,001,32,05,55,223,30,06,41,073,33,09,22,053,14*77
$GPGSV,3,2,12,12,33,246,24,17,06,137,10,19,27,136,28,20,03,230,14*7C
$GPGSV,3,3,12,29,16,313,18,13,00,174,,23,04,032,,25,26,289,*7A
$GLGSV,3,1,11,66,52,040,37,82,60,343,21,83,09,313,17,81,53,101,39*6B
$GLGSV,3,2,11,67,63,182,23,68,11,202,19,74,01,357,,73,07,312,*6C
$GLGSV,3,3,11,80,,,,65,,,,88,04,123,*5A
$GPGGA,200407.0,4112.556371,N,07348.245913,W,1,05,1.2,156.1,M,-37.0,M,,*66
$GNGNS,200407.0,4112.556371,N,07348.245913,W,AA,09,1.2,156.1,-37.0,,*5E
$GPVTG,317.4,T,317.4,M,0.0,N,0.0,K,A*23
$GPRMC,200407.0,A,4112.556371,N,07348.245913,W,0.0,317.4,300816,0.0,E,A*1E
$GPGSA,A,2,02,05,06,12,19,,,,,,,,1.5,1.2,0.9*37
$GNGSA,A,2,02,05,06,12,19,,,,,,,,1.5,1.2,0.9*29
$GNGSA,A,2,66,67,81,82,,,,,,,,,1.5,1.2,0.9*21
$GPGSV,3,1,12,02,72,001,32,05,55,223,29,06,41,073,33,09,22,053,14*7F
$GPGSV,3,2,12,12,33,246,23,17,06,137,10,19,27,136,26,20,03,230,14*75
$GPGSV,3,3,12,29,16,313,18,13,00,174,,23,04,032,,25,26,289,*7A
$GLGSV,3,1,11,66,52,040,38,82,60,343,21,83,09,313,14,81,53,101,40*69
$GLGSV,3,2,11,67,63,182,22,68,11,202,19,74,01,357,,73,07,312,*6D
$GLGSV,3,3,11,80,,,,65,,,,88,04,123,*5A
$GPGGA,200408.0,4112.556370,N,07348.245913,W,1,05,1.2,156.1,M,-37.0,M,,*68
$GNGNS,200408.0,4112.556370,N,07348.245913,W,AA,09,1.2,156.1,-37.0,,*50
$GPVTG,317.4,T,317.4,M,0.0,N,0.0,K,A*23
$GPRMC,200408.0,A,4112.556370,N,07348.245913,W,0.0,317.4,300816,0.0,E,A*10
$GPGSA,A,2,02,05,06,12,19,,,,,,,,1.5,1.2,0.9*37
$GNGSA,A,2,02,05,06,12,19,,,,,,,,1.5,1.2,0.9*29
$GNGSA,A,2,66,67,81,82,,,,,,,,,1.5,1.2,0.9*21
$GPGSV,3,1,12,02,72,001,33,05,55,223,27,06,41,073,37,09,22,053,14*74
$GPGSV,3,2,12,12,33,246,20,17,06,137,10,19,27,136,24,20,03,230,14*74
$GPGSV,3,3,12,29,16,313,18,13,00,174,,23,04,032,,25,26,289,*7A
$GLGSV,3,1,11,66,52,040,38,82,60,343,23,83,09,313,14,81,53,101,42*69
$GLGSV,3,2,11,67,63,182,28,68,11,202,20,74,01,357,,73,07,312,*6D
$GLGSV,3,3,11,80,,,,65,,,,88,04,123,*5A
$GPGGA,200409.0,4112.556373,N,07348.245914,W,1,05,1.1,156.1,M,-37.0,M,,*6E
$GNGNS,200409.0,4112.556373,N,07348.245914,W,AA,10,1.1,156.1,-37.0,,*5E
$GPVTG,317.4,T,317.4,M,0.0,N,0.0,K,A*23
$GPRMC,200409.0,A,4112.556373,N,07348.245914,W,0.0,317.4,300816,0.0,E,A*15
$GPGSA,A,2,02,05,06,12,19,,,,,,,,1.4,1.1,0.9*35
$GNGSA,A,2,02,05,06,12,19,,,,,,,,1.4,1.1,0.9*2B
$GNGSA,A,2,66,67,68,81,82,,,,,,,,1.4,1.1,0.9*2D
$GPGSV,3,1,12,02,72,001,33,05,55,223,29,06,41,073,37,09,22,053,14*7A
$GPGSV,3,2,12,12,33,246,23,17,06,137,10,19,27,136,28,20,03,230,14*7B
$GPGSV,3,3,12,29,16,313,18,13,00,174,,23,04,032,,25,26,289,*7A
$GLGSV,3,1,11,66,52,040,38,82,60,343,23,83,09,313,14,81,53,101,42*69
$GLGSV,3,2,11,67,63,182,27,68,11,202,20,74,01,357,,73,07,312,*62
$GLGSV,3,3,11,80,,,,65,,,,88,04,123,*5A
$GPGGA,200410.0,4112.556373,N,07348.245915,W,1,05,1.1,156.1,M,-37.0,M,,*67
$GNGNS,200410.0,4112.556373,N,07348.245915,W,AA,10,1.1,156.1,-37.0,,*57
$GPVTG,317.4,T,317.4,M,0.0,N,0.0,K,A*23
$GPRMC,200410.0,A,4112.556373,N,07348.245915,W,0.0,317.4,300816,0.0,E,A*1C
$GPGSA,A,2,02,05,06,12,19,,,,,,,,1.4,1.1,0.9*35
$GNGSA,A,2,02,05,06,12,19,,,,,,,,1.4,1.1,0.9*2B
$GNGSA,A,2,66,67,68,81,82,,,,,,,,1.4,1.1,0.9*2D
$GPGSV,3,1,12,02,72,001,33,05,55,223,31,06,41,073,37,09,22,053,14*73
$GPGSV,3,2,12,12,33,246,34,17,06,137,13,19,27,136,29,20,03,230,14*7F
$GPGSV,3,3,12,29,16,313,18,13,00,174,,23,04,032,,25,26,289,*7A
$GLGSV,3,1,11,66,52,040,35,82,60,343,26,83,09,313,14,81,53,101,37*63
$GLGSV,3,2,11,67,63,182,31,68,11,202,20,74,01,357,,73,07,312,*65
$GLGSV,3,3,11,80,,,,65,,,,88,04,123,*5A
$GPGGA,200411.0,4112.556373,N,07348.245965,W,1,05,1.1,156.0,M,-37.0,M,,*60
$GNGNS,200411.0,4112.556373,N,07348.245965,W,AA,10,1.1,156.0,-37.0,,*50
$GPVTG,317.4,T,317.4,M,0.0,N,0.0,K,A*23
$GPRMC,200411.0,A,4112.556373,N,07348.245965,W,0.0,317.4,300816,0.0,E,A*1A
$GPGSA,A,2,02,05,06,12,19,,,,,,,,1.4,1.1,0.9*35
$GNGSA,A,2,02,05,06,12,19,,,,,,,,1.4,1.1,0.9*2B
$GNGSA,A,2,66,67,68,81,82,,,,,,,,1.4,1.1,0.9*2D
$GPGSV,3,1,12,02,72,001,29,05,55,223,32,06,41,073,36,09,22,053,14*7A
$GPGSV,3,2,12,12,33,246,35,17,06,137,13,19,27,136,29,20,03,230,14*7E
$GPGSV,3,3,12,29,16,313,18,13,00,174,,23,04,032,,25,26,289,*7A
$GLGSV,3,1,11,66,52,040,32,82,60,343,27,83,09,313,14,81,53,101,32*60
$GLGSV,3,2,11,67,63,182,32,68,11,202,15,74,01,357,,73,07,312,*60
$GLGSV,3,3,11,80,,,,65,,,,88,04,123,*5A
$GPGGA,200412.0,4112.556007,N,07348.246237,W,1,05,1.1,155.1,M,-37.0,M,,*6E
$GNGNS,200412.0,4112.556007,N,07348.246237,W,AA,10,1.1,155.1,-37.0,,*5E
$GPVTG,317.4,T,317.4,M,0.0,N,0.0,K,A*23
$GPRMC,200412.0,A,4112.556007,N,07348.246237,W,0.0,317.4,300816,0.0,E,A*16
$GPGSA,A,2,02,05,06,12,19,,,,,,,,1.4,1.1,0.9*35
$GNGSA,A,2,02,05,06,12,19,,,,,,,,1.4,1.1,0.9*2B
$GNGSA,A,2,66,67,68,81,82,,,,,,,,1.4,1.1,0.9*2D
$GPGSV,3,1,12,02,72,001,29,05,55,223,32,06,41,073,37,09,22,053,14*7B
$GPGSV,3,2,12,12,33,246,35,17,06,137,16,19,27,136,27,20,03,230,14*75
$GPGSV,3,3,12,29,16,313,18,13,00,174,,23,04,032,,25,26,289,*7A
$GLGSV,3,1,11,66,52,040,30,82,60,343,28,83,09,313,14,81,53,101,32*6D
$GLGSV,3,2,11,67,63,182,31,68,11,202,20,74,01,357,,73,07,312,*65
$GLGSV,3,3,11,80,,,,65,,,,88,04,123,*5A
$GPGGA,200413.0,4112.555931,N,07348.245943,W,1,05,1.1,155.6,M,-37.0,M,,*6C
$GNGNS,200413.0,4112.555931,N,07348.245943,W,AA,10,1.1,155.6,-37.0,,*5C
$GPVTG,317.4,T,317.4,M,0.0,N,0.0,K,A*23
$GPRMC,200413.0,A,4112.555931,N,07348.245943,W,0.0,317.4,300816,0.0,E,A*13
$GPGSA,A,2,02,05,06,12,19,,,,,,,,1.4,1.1,0.9*35
$GNGSA,A,2,02,05,06,12,19,,,,,,,,1.4,1.1,0.9*2B
$GNGSA,A,2,66,67,68,81,82,,,,,,,,1.4,1.1,0.9*2D
$GPGSV,3,1,12,02,72,001,27,05,55,223,31,06,41,073,36,09,22,053,12*71
$GPGSV,3,2,12,12,33,246,35,17,06,137,16,19,27,136,27,20,03,230,14*75
$GPGSV,3,3,12,29,16,313,18,13,00,174,,23,04,032,,25,26,289,*7A
$GLGSV,3,1,11,66,52,040,28,82,60,343,26,83,09,313,14,81,53,101,30*68
$GLGSV,3,2,11,67,63,182,30,68,11,202,19,74,01,357,,73,07,312,*6E
$GLGSV,3,3,11,80,,,,65,,,,88,04,123,*5A
$GPGGA,200414.0,4112.555713,N,07348.245881,W,1,05,1.1,156.4,M,-37.0,M,,*6B
