$GPGSV,3,1,12,02,72,001,24,05,55,223,25,06,41,073,26,09,22,053,15*71
$GPGSV,3,2,12,12,33,244,18,13,00,174,15,19,27,136,18,17,06,137,*72
$GPGSV,3,3,12,20,03,230,,23,04,032,,25,26,289,,29,16,313,*73
$GLGSV,3,1,11,66,53,042,30,82,59,341,12,81,54,098,31,67,63,182,25*64
$GLGSV,3,2,11,68,11,202,18,74,01,358,,73,07,312,,80,,,*54
$GLGSV,3,3,11,65,00,029,,88,04,122,,83,09,313,*5B
$GPGGA,200259.0,4112.555831,N,07348.246764,W,1,06,1.1,172.9,M,-37.0,M,,*64
$GNGNS,200259.0,4112.555831,N,07348.246764,W,AA,10,1.1,172.9,-37.0,,*57
$GPVTG,151.7,T,151.7,M,0.0,N,0.0,K,A*23
$GPRMC,200259.0,A,4112.555831,N,07348.246764,W,0.0,151.7,300816,0.0,E,A*11
$GPGSA,A,2,02,05,06,09,12,19,,,,,,,1.4,1.1,0.8*3D
$GNGSA,A,2,02,05,06,09,12,19,,,,,,,1.4,1.1,0.8*23
$GNGSA,A,2,66,67,68,81,,,,,,,,,1.4,1.1,0.8*26
$GPGSV,3,1,12,02,72,001,25,05,55,223,25,06,41,073,25,09,22,053,15*73
$GPGSV,3,2,12,12,33,244,16,13,00,174,15,19,27,136,18,17,06,137,*7C
$GPGSV,3,3,12,20,03,230,,23,04,032,,25,26,289,,29,16,313,*73
$GLGSV,3,1,11,66,53,042,30,82,59,341,12,81,54,098,34,67,63,182,25*61
$GLGSV,3,2,11,68,11,202,18,74,01,358,,73,07,312,,80,,,*54
$GLGSV,3,3,11,65,00,029,,88,04,122,,83,09,313,*5B
$GPGGA,200300.0,4112.555833,N,07348.246764,W,1,06,1.1,172.9,M,-37.0,M,,*6B
$GNGNS,200300.0,4112.555833,N,07348.246764,W,AA,10,1.1,172.9,-37.0,,*58
$GPVTG,151.7,T,151.7,M,0.0,N,0.0,K,A*23
$GPRMC,200300.0,A,4112.555833,N,07348.246764,W,0.0,151.7,300816,0.0,E,A*1E
$GPGSA,A,2,02,05,06,09,12,19,,,,,,,1.4,1.1,0.8*3D
$GNGSA,A,2,02,05,06,09,12,19,,,,,,,1.4,1.1,0.8*23
$GNGSA,A,2,66,67,68,81,,,,,,,,,1.4,1.1,0.8*26
$GPGSV,3,1,12,02,72,001,25,05,55,223,23,06,41,073,25,09,22,053,15*75
$GPGSV,3,2,12,12,33,244,21,13,00,174,15,19,27,136,18,17,06,137,*78
$GPGSV,3,3,12,20,03,230,,23,04,032,,25,26,289,,29,16,313,*73
$GLGSV,3,1,11,66,53,042,30,82,59,341,12,81,54,098,32,67,63,182,19*68
$GLGSV,3,2,11,68,11,202,18,74,01,358,,73,07,312,,80,,,*54
$GLGSV,3,3,11,65,00,029,,88,04,122,,83,09,313,*5B
$GPGGA,200301.0,4112.555834,N,07348.246764,W,1,06,1.0,172.9,M,-37.0,M,,*6C
$GNGNS,200301.0,4112.555834,N,07348.246764,W,AA,11,1.0,172.9,-37.0,,*5E
$GPVTG,151.7,T,151.7,M,0.0,N,0.0,K,A*23
$GPRMC,200301.0,A,4112.555834,N,07348.246764,W,0.0,151.7,300816,0.0,E,A*18
$GPGSA,A,2,02,05,06,09,12,19,,,,,,,1.3,1.0,0.8*3B
$GNGSA,A,2,02,05,06,09,12,19,,,,,,,1.3,1.0,0.8*25
$GNGSA,A,2,66,67,68,81,82,,,,,,,,1.3,1.0,0.8*2A
$GPGSV,3,1,12,02,72,001,25,05,55,223,24,06,41,073,25,09,22,053,15*72
$GPGSV,3,2,12,12,33,244,23,13,00,174,15,19,27,136,18,17,06,137,*7A
$GPGSV,3,3,12,20,03,230,,23,04,032,,25,26,289,,29,16,313,*73
$GLGSV,3,1,11,66,53,042,32,82,59,341,12,81,54,098,32,67,63,182,19*6A
$GLGSV,3,2,11,68,11,202,13,74,01,358,,73,07,312,,80,,,*5F
$GLGSV,3,3,11,65,00,029,,88,04,122,,83,09,313,*5B
$GPGGA,200302.0,4112.555836,N,07348.246765,W,1,06,1.0,172.9,M,-37.0,M,,*6C
$GNGNS,200302.0,4112.555836,N,07348.246765,W,AA,11,1.0,172.9,-37.0,,*5E
$GPVTG,151.7,T,151.7,M,0.0,N,0.0,K,A*23
$GPRMC,200302.0,A,4112.555836,N,07348.246765,W,0.0,151.7,300816,0.0,E,A*18
$GPGSA,A,2,02,05,06,09,12,19,,,,,,,1.3,1.0,0.8*3B
$GNGSA,A,2,02,05,06,09,12,19,,,,,,,1.3,1.0,0.8*25
$GNGSA,A,2,66,67,68,81,82,,,,,,,,1.3,1.0,0.8*2A
$GPGSV,3,1,12,02,72,001,26,05,55,223,24,06,41,073,25,09,22,053,15*71
$GPGSV,3,2,12,12,33,244,23,13,00,174,15,19,27,136,18,17,06,137,*7A
$GPGSV,3,3,12,20,03,230,,23,04,032,,25,26,289,,29,16,313,*73
$GLGSV,3,1,11,66,53,042,29,82,59,341,12,81,54,098,32,67,63,182,21*6B
$GLGSV,3,2,11,68,11,202,13,74,01,358,,73,07,312,,80,,,*5F
$GLGSV,3,3,11,65,00,029,,88,04,122,,83,09,313,*5B
$GPGGA,200303.0,4112.555837,N,07348.246765,W,1,06,1.0,172.9,M,-37.0,M,,*6C
$GNGNS,200303.0,4112.555837,N,07348.246765,W,AA,11,1.0,172.9,-37.0,,*5E
$GPVTG,151.7,T,151.7,M,0.0,N,0.0,K,A*23
$GPRMC,200303.0,A,4112.555837,N,07348.246765,W,0.0,151.7,300816,0.0,E,A*18
$GPGSA,A,2,02,05,06,09,12,19,,,,,,,1.3,1.0,0.8*3B
$GNGSA,A,2,02,05,06,09,12,19,,,,,,,1.3,1.0,0.8*25
$GNGSA,A,2,66,67,68,81,82,,,,,,,,1.3,1.0,0.8*2A
$GPGSV,3,1,12,02,72,001,26,05,55,223,26,06,41,073,26,09,22,053,15*70
$GPGSV,3,2,12,12,33,244,25,13,00,174,15,19,27,136,18,17,06,137,*7C
$GPGSV,3,3,12,20,03,230,,23,04,032,,25,26,289,,29,16,313,*73
$GLGSV,3,1,11,66,53,042,31,82,59,341,12,81,54,098,33,67,63,182,23*61
$GLGSV,3,2,11,68,11,202,13,74,01,358,,73,07,312,,80,,,*5F
$GLGSV,3,3,11,65,00,029,,88,04,122,,83,09,313,*5B
$GPGGA,200304.0,4112.555836,N,07348.246764,W,1,06,1.0,172.9,M,-37.0,M,,*6B
$GNGNS,200304.0,4112.555836,N,07348.246764,W,AA,11,1.0,172.9,-37.0,,*59
$GPVTG,151.7,T,151.7,M,0.0,N,0.0,K,A*23
$GPRMC,200304.0,A,4112.555836,N,07348.246764,W,0.0,151.7,300816,0.0,E,A*1F
$GPGSA,A,2,02,05,06,09,12,19,,,,,,,1.3,1.0,0.8*3B
$GNGSA,A,2,02,05,06,09,12,19,,,,,,,1.3,1.0,0.8*25
$GNGSA,A,2,66,67,68,81,82,,,,,,,,1.3,1.0,0.8*2A
$GPGSV,3,1,12,02,72,001,26,05,55,223,24,06,41,073,26,09,22,053,16*71
$GPGSV,3,2,12,12,33,244,22,13,00,174,15,19,27,136,14,17,06,137,*77
$GPGSV,3,3,12,20,03,230,,23,04,032,,25,26,289,,29,16,313,*73
$GLGSV,3,1,11,66,53,042,30,82,59,341,12,81,53,101,32,67,63,182,21*65
$GLGSV,3,2,11,68,11,202,13,74,01,358,,73,07,312,,80,,,*5F
$GLGSV,3,3,11,65,00,029,,88,04,122,,83,09,313,*5B
$GPGGA,200305.0,4112.555837,N,07348.246764,W,1,06,1.0,172.9,M,-37.0,M,,*6B
$GNGNS,200305.0,4112.555837,N,07348.246764,W,AA,11,1.0,172.9,-37.0,,*59
$GPVTG,151.7,T,151.7,M,0.0,N,0.0,K,A*23
$GPRMC,200305.0,A,4112.555837,N,07348.246764,W,0.0,151.7,300816,0.0,E,A*1F
$GPGSA,A,2,02,05,06,09,12,19,,,,,,,1.3,1.0,0.8*3B
$GNGSA,A,2,02,05,06,09,12,19,,,,,,,1.3,1.0,0.8*25
$GNGSA,A,2,66,67,68,81,82,,,,,,,,1.3,1.0,0.8*2A
$GPGSV,3,1,12,02,72,001,27,05,55,223,25,06,41,073,26,09,22,053,16*71
$GPGSV,3,2,12,12,33,244,24,13,00,174,15,19,27,136,14,17,06,137,*71
$GPGSV,3,3,12,20,03,230,,23,04,032,,25,26,289,,29,16,313,*73
$GLGSV,3,1,11,66,53,042,29,82,59,341,12,81,53,101,32,67,63,182,21*6D
$GLGSV,3,2,11,68,11,202,13,74,01,358,,73,07,312,,80,,,*5F
$GLGSV,3,3,11,65,00,029,,88,04,122,,83,09,313,*5B
$GPGGA,200306.0,4112.555838,N,07348.246764,W,1,06,1.0,172.9,M,-37.0,M,,*67
$GNGNS,200306.0,4112.555838,N,07348.246764,W,AA,11,1.0,172.9,-37.0,,*55
$GPVTG,151.7,T,151.7,M,0.0,N,0.0,K,A*23
$GPRMC,200306.0,A,4112.555838,N,07348.246764,W,0.0,151.7,300816,0.0,E,A*13
$GPGSA,A,2,02,05,06,09,12,19,,,,,,,1.3,1.0,0.8*3B
$GNGSA,A,2,02,05,06,09,12,19,,,,,,,1.3,1.0,0.8*25
$GNGSA,A,2,66,67,68,81,82,,,,,,,,1.3,1.0,0.8*2A
$GPGSV,3,1,12,02,72,001,27,05,55,223,26,06,41,073,27,09,22,053,16*73
$GPGSV,3,2,12,12,33,244,24,13,00,174,15,19,27,136,17,17,06,137,*72
$GPGSV,3,3,12,20,03,230,,23,04,032,,25,26,289,,29,16,313,*73
$GLGSV,3,1,11,66,53,042,30,82,59,341,12,81,53,101,33,67,63,182,24*61
$GLGSV,3,2,11,68,11,202,13,74,01,358,,73,07,312,,80,,,*5F
$GLGSV,3,3,11,65,00,029,,88,04,122,,83,09,313,*5B
$GPGGA,200307.0,4112.555837,N,07348.246762,W,1,06,1.0,172.9,M,-37.0,M,,*6F
$GNGNS,200307.0,4112.555837,N,07348.246762,W,AA,11,1.0,172.9,-37.0,,*5D
$GPVTG,151.7,T,151.7,M,0.0,N,0.0,K,A*23
$GPRMC,200307.0,A,4112.555837,N,07348.246762,W,0.0,151.7,300816,0.0,E,A*1B
$GPGSA,A,2,02,05,06,09,12,19,,,,,,,1.3,1.0,0.8*3B
$GNGSA,A,2,02,05,06,09,12,19,,,,,,,1.3,1.0,0.8*25
$GNGSA,A,2,66,67,68,81,82,,,,,,,,1.3,1.0,0.8*2A
$GPGSV,3,1,12,02,72,001,26,05,55,223,24,06,41,073,27,09,22,053,16*70
$GPGSV,3,2,12,12,33,244,23,13,00,174,15,19,27,136,17,17,06,137,*75
$GPGSV,3,3,12,20,03,230,,23,04,032,,25,26,289,,29,16,313,*73
$GLGSV,3,1,11,66,53,042,30,82,59,341,12,81,53,101,32,67,63,182,20*64
$GLGSV,3,2,11,68,11,202,13,74,01,358,,73,07,312,,80,,,*5F
$GLGSV,3,3,11,65,00,029,,88,04,122,,83,09,313,*5B
$GPGGA,200308.0,4112.555838,N,07348.246761,W,1,06,1.1,172.9,M,-37.0,M,,*6D
$GNGNS,200308.0,4112.555838,N,07348.246761,W,AA,10,1.1,172.9,-37.0,,*5E
$GPVTG,151.7,T,151.7,M,0.0,N,0.0,K,A*23
$GPRMC,200308.0,A,4112.555838,N,07348.246761,W,0.0,151.7,300816,0.0,E,A*18
$GPGSA,A,2,02,05,06,09,12,19,,,,,,,1.4,1.1,0.8*3D
$GNGSA,A,2,02,05,06,09,12,19,,,,,,,1.4,1.1,0.8*23
$GNGSA,A,2,66,67,68,81,,,,,,,,,1.4,1.1,0.8*26
$GPGSV,3,1,12,02,72,001,25,05,55,223,25,06,41,073,28,09,22,053,16*7D
$GPGSV,3,2,12,12,33,244,25,13,00,174,15,19,27,136,17,17,06,137,*73
$GPGSV,3,3,12,20,03,230,,23,04,032,,25,26,289,,29,16,313,*73
$GLGSV,3,1,11,66,53,042,30,82,59,341,12,81,53,101,30,67,63,182,19*6C
$GLGSV,3,2,11,68,11,202,13,74,01,358,,73,07,312,,80,,,*5F
$GLGSV,3,3,11,65,00,029,,88,04,122,,83,09,313,*5B
$GPGGA,200309.0,4112.555838,N,07348.246759,W,1,06,1.2,172.9,M,-37.0,M,,*64
$GNGNS,200309.0,4112.555838,N,07348.246759,W,AA,09,1.2,172.9,-37.0,,*5F
$GPVTG,151.7,T,151.7,M,0.0,N,0.0,K,A*23
$GPRMC,200309.0,A,4112.555838,N,07348.246759,W,0.0,151.7,300816,0.0,E,A*12
$GPGSA,A,2,02,05,06,09,12,19,,,,,,,1.5,1.2,0.9*3E
$GNGSA,A,2,02,05,06,09,12,19,,,,,,,1.5,1.2,0.9*20
$GNGSA,A,2,66,67,81,,,,,,,,,,1.5,1.2,0.9*2B
$GPGSV,3,1,12,02,72,001,25,05,55,223,24,06,41,073,27,09,22,053,14*71
$GPGSV,3,2,12,12,33,244,24,13,00,174,15,19,27,136,17,17,06,137,*72
$GPGSV,3,3,12,20,03,230,,23,04,032,,25,26,289,,29,16,313,*73
$GLGSV,3,1,11,66,53,042,29,82,59,341,12,81,53,101,30,67,63,182,18*65
$GLGSV,3,2,11,68,11,202,13,74,01,358,,73,07,312,,80,,,*5F
$GLGSV,3,3,11,65,00,029,,88,04,122,,83,09,313,*5B
$GPGGA,200310.0,4112.555838,N,07348.246757,W,1,06,1.2,172.9,M,-37.0,M,,*62
$GNGNS,200310.0,4112.555838,N,07348.246757,W,AA,09,1.2,172.9,-37.0,,*59
$GPVTG,151.7,T,151.7,M,0.0,N,0.0,K,A*23
$GPRMC,200310.0,A,4112.555838,N,07348.246757,W,0.0,151.7,300816,0.0,E,A*14
$GPGSA,A,2,02,05,06,09,12,19,,,,,,,1.5,1.2,0.9*3E
$GNGSA,A,2,02,05,06,09,12,19,,,,,,,1.5,1.2,0.9*20
$GNGSA,A,2,66,67,81,,,,,,,,,,1.5,1.2,0.9*2B
$GPGSV,3,1,12,02,72,001,25,05,55,223,24,06,41,073,29,09,22,053,14*7F
$GPGSV,3,2,12,12,33,244,21,13,00,174,15,19,27,136,17,17,06,137,*77
$GPGSV,3,3,12,20,03,230,,23,04,032,,25,26,289,,29,16,313,*73
$GLGSV,3,1,11,66,53,042,28,82,59,341,12,81,53,101,30,67,63,182,21*6E
$GLGSV,3,2,11,68,11,202,12,74,01,358,,73,07,312,,80,,,*5E
$GLGSV,3,3,11,65,00,029,,88,04,122,,83,09,313,*5B
$GPGGA,200311.0,4112.555838,N,07348.246756,W,1,06,1.1,172.9,M,-37.0,M,,*61
$GNGNS,200311.0,4112.555838,N,07348.246756,W,AA,10,1.1,172.9,-37.0,,*52
$GPVTG,151.7,T,151.7,M,0.0,N,0.0,K,A*23
$GPRMC,200311.0,A,4112.555838,N,07348.246756,W,0.0,151.7,300816,0.0,E,A*14
$GPGSA,A,2,02,05,06,09,12,19,,,,,,,1.4,1.1,0.8*3D
$GNGSA,A,2,02,05,06,09,12,19,,,,,,,1.4,1.1,0.8*23
$GNGSA,A,2,66,67,68,81,,,,,,,,,1.4,1.1,0.8*26
$GPGSV,3,1,12,02,72,001,23,05,55,223,23,06,41,073,30,09,22,053,14*76
$GPGSV,3,2,12,12,33,244,17,13,00,174,15,19,27,136,17,17,06,137,*72
$GPGSV,3,3,12,20,03,230,,23,04,032,,25,26,289,,29,16,313,*73
$GLGSV,3,1,11,66,53,042,31,82,59,341,12,81,53,101,34,67,63,182,21*62
$GLGSV,3,2,11,68,11,202,12,74,01,358,,73,07,312,,80,,,*5E
$GLGSV,3,3,11,65,00,029,,88,04,122,,83,09,313,*5B
$GPGGA,200312.0,4112.555838,N,07348.246757,W,1,06,1.1,172.9,M,-37.0,M,,*63
$GNGNS,200312.0,4112.555838,N,07348.246757,W,AA,10,1.1,172.9,-37.0,,*50
$GPVTG,151.7,T,151.7,M,0.0,N,0.0,K,A*23
$GPRMC,200312.0,A,4112.555838,N,07348.246757,W,0.0,151.7,300816,0.0,E,A*16
$GPGSA,A,2,02,05,06,09,12,19,,,,,,,1.4,1.1,0.8*3D
$GNGSA,A,2,02,05,06,09,12,19,,,,,,,1.4,1.1,0.8*23
$GNGSA,A,2,66,67,68,81,,,,,,,,,1.4,1.1,0.8*26
$GPGSV,3,1,12,02,72,001,24,05,55,223,24,06,41,073,29,09,22,053,15*7F
$GPGSV,3,2,12,12,33,244,17,13,00,174,15,19,27,136,17,17,06,137,*72
$GPGSV,3,3,12,20,03,230,,23,04,032,,25,26,289,,29,16,313,*73
$GLGSV,3,1,11,66,53,042,30,82,59,341,12,81,53,101,33,67,63,182,24*61
$GLGSV,3,2,11,68,11,202,12,74,01,358,,73,07,312,,80,,,*5E
$GLGSV,3,3,11,65,00,029,,88,04,122,,83,09,313,*5B
$GPGGA,200313.0,4112.555837,N,07348.246756,W,1,06,1.1,172.9,M,-37.0,M,,*6C
$GNGNS,200313.0,4112.555837,N,07348.246756,W,AA,10,1.1,172.9,-37.0,,*5F
$GPVTG,151.7,T,151.7,M,0.0,N,0.0,K,A*23
$GPRMC,200313.0,A,4112.555837,N,07348.246756,W,0.0,151.7,300816,0.0,E,A*19
$GPGSA,A,2,02,05,06,09,12,19,,,,,,,1.4,1.1,0.8*3D
$GNGSA,A,2,02,05,06,09,12,19,,,,,,,1.4,1.1,0.8*23
$GNGSA,A,2,66,67,68,81,,,,,,,,,1.4,1.1,0.8*26
$GPGSV,3,1,12,02,72,001,22,05,55,223,25,06,41,073,29,09,22,053,15*78
$GPGSV,3,2,12,12,33,244,18,13,00,174,15,19,27,136,17,17,06,137,*7D
$GPGSV,3,3,12,20,03,230,,23,04,032,,25,26,289,,29,16,313,*73
$GLGSV,3,1,11,66,53,042,30,82,59,341,21,81,53,101,34,67,63,182,25*67
$GLGSV,3,2,11,68,11,202,12,74,01,358,,73,07,312,,80,,,*5E
$GLGSV,3,3,11,65,00,029,,88,04,122,,83,09,313,*5B
$GPGGA,200314.0,4112.555840,N,07348.246758,W,1,05,1.2,172.9,M,-37.0,M,,*65
$GNGNS,200314.0,4112.555840,N,07348.246758,W,AA,10,1.2,172.9,-37.0,,*55
$GPVTG,151.7,T,151.7,M,0.0,N,0.0,K,A*23
$GPRMC,200314.0,A,4112.555840,N,07348.246758,W,0.0,151.7,300816,0.0,E,A*10
$GPGSA,A,2,02,05,06,09,12,,,,,,,,1.5,1.2,0.8*37
$GNGSA,A,2,02,05,06,09,12,,,,,,,,1.5,1.2,0.8*29
$GNGSA,A,2,66,67,68,81,82,,,,,,,,1.5,1.2,0.8*2E
$GPGSV,3,1,12,02,72,001,22,05,55,223,24,06,41,073,28,09,22,053,16*7B
$GPGSV,3,2,12,12,33,244,18,13,00,174,15,19,27,136,15,17,06,137,*7F
$GPGSV,3,3,12,20,03,230,,23,04,032,,25,26,289,,29,16,313,*73
$GLGSV,3,1,11,66,53,042,30,82,59,341,21,81,53,101,33,67,63,182,24*61
$GLGSV,3,2,11,68,11,202,12,74,01,358,,73,07,312,,80,,,*5E
$GLGSV,3,3,11,65,00,029,,88,04,122,,83,09,313,*5B
$GPGGA,200315.0,4112.555840,N,07348.246758,W,1,06,1.0,172.9,M,-37.0,M,,*65
$GNGNS,200315.0,4112.555840,N,07348.246758,W,AA,11,1.0,172.9,-37.0,,*57
$GPVTG,151.7,T,151.7,M,0.0,N,0.0,K,A*23
$GPRMC,200315.0,A,4112.555840,N,07348.246758,W,0.0,151.7,300816,0.0,E,A*11
$GPGSA,A,2,02,05,06,09,12,19,,,,,,,1.3,1.0,0.8*3B
$GNGSA,A,2,02,05,06,09,12,19,,,,,,,1.3,1.0,0.8*25
$GNGSA,A,2,66,67,68,81,82,,,,,,,,1.3,1.0,0.8*2A
$GPGSV,3,1,11,02,72,001,22,05,55,223,24,06,41,073,28,09,22,053,16*78
$GPGSV,3,2,11,12,33,244,18,19,27,136,23,17,06,137,,20,03,230,*7D
$GPGSV,3,3,11,23,04,032,,25,26,289,,29,16,313,*40
$GLGSV,3,1,11,66,53,042,28,82,59,341,21,81,53,101,33,67,63,182,25*69
$GLGSV,3,2,11,68,11,202,12,74,01,358,,73,07,312,,80,,,*5E
$GLGSV,3,3,11,65,00,029,,88,04,122,,83,09,313,*5B
$GPGGA,200316.0,4112.555840,N,07348.246757,W,1,06,1.0,172.9,M,-37.0,M,,*69
$GNGNS,200316.0,4112.555840,N,07348.246757,W,AA,11,1.0,172.9,-37.0,,*5B
$GPVTG,151.7,T,151.7,M,0.0,N,0.0,K,A*23
$GPRMC,200316.0,A,4112.555840,N,07348.246757,W,0.0,151.7,300816,0.0,E,A*1D
$GPGSA,A,2,02,05,06,09,12,19,,,,,,,1.3,1.0,0.8*3B
$GNGSA,A,2,02,05,06,09,12,19,,,,,,,1.3,1.0,0.8*25
$GNGSA,A,2,66,67,68,81,82,,,,,,,,1.3,1.0,0.8*2A
$GPGSV,3,1,12,02,72,001,22,05,55,223,23,06,41,073,27,09,22,053,18*7D
$GPGSV,3,2,12,12,33,244,18,19,27,136,24,13,00,174,,17,06,137,*79
$GPGSV,3,3,12,20,03,230,,23,04,032,,25,26,289,,29,16,313,*73
$GLGSV,3,1,11,66,53,042,26,82,59,341,21,81,53,101,33,67,63,182,26*64
$GLGSV,3,2,11,68,11,202,12,74,01,358,,73,07,312,,80,,,*5E
$GLGSV,3,3,11,65,00,029,,88,04,122,,83,09,313,*5B
$GPGGA,200317.0,4112.555839,N,07348.246757,W,1,06,1.0,172.9,M,-37.0,M,,*66
$GNGNS,200317.0,4112.555839,N,07348.246757,W,AA,11,1.0,172.9,-37.0,,*54
$GPVTG,151.7,T,151.7,M,0.0,N,0.0,K,A*23
$GPRMC,200317.0,A,4112.555839,N,07348.246757,W,0.0,151.7,300816,0.0,E,A*12
$GPGSA,A,2,02,05,06,09,12,19,,,,,,,1.3,1.0,0.8*3B
$GNGSA,A,2,02,05,06,09,12,19,,,,,,,1.3,1.0,0.8*25
$GNGSA,A,2,66,67,68,81,82,,,,,,,,1.3,1.0,0.8*2A
$GPGSV,3,1,12,02,72,001,23,05,55,223,24,06,41,073,23,09,22,053,18*7F
$GPGSV,3,2,12,12,33,244,21,19,27,136,26,13,00,174,,17,06,137,*71
$GPGSV,3,3,12,20,03,230,,23,04,032,,25,26,289,,29,16,313,*73
$GLGSV,3,1,11,66,53,042,22,82,59,341,21,81,53,101,32,67,63,182,25*62
$GLGSV,3,2,11,68,11,202,12,74,01,358,,73,07,312,,80,,,*5E
$GLGSV,3,3,11,65,00,029,,88,04,122,,83,09,313,*5B
$GPGGA,200318.0,4112.555840,N,07348.246756,W,1,06,1.1,172.9,M,-37.0,M,,*67
$GNGNS,200318.0,4112.555840,N,07348.246756,W,AA,10,1.1,172.9,-37.0,,*54
$GPVTG,151.7,T,151.7,M,0.0,N,0.0,K,A*23
$GPRMC,200318.0,A,4112.555840,N,07348.246756,W,0.0,151.7,300816,0.0,E,A*12
$GPGSA,A,2,02,05,06,09,12,19,,,,,,,1.4,1.1,0.9*3C
$GNGSA,A,2,02,05,06,09,12,19,,,,,,,1.4,1.1,0.9*22
$GNGSA,A,2,66,67,81,82,,,,,,,,,1.4,1.1,0.9*23
$GPGSV,3,1,12,02,72,001,24,05,55,223,25,06,41,073,22,09,22,053,18*78
$GPGSV,3,2,12,12,33,244,16,19,27,136,26,13,00,174,,17,06,137,*75
$GPGSV,3,3,12,20,03,230,,23,04,032,,25,26,289,,29,16,313,*73
$GLGSV,3,1,11,66,53,042,22,82,59,341,21,81,53,101,32,67,63,182,25*62
$GLGSV,3,2,11,68,11,202,13,74,01,358,,73,07,312,,80,,,*5F
$GLGSV,3,3,11,65,00,029,,88,04,122,,83,09,313,*5B
$GPGGA,200319.0,4112.555842,N,07348.246755,W,1,06,1.0,172.9,M,-37.0,M,,*66
$GNGNS,200319.0,4112.555842,N,07348.246755,W,AA,11,1.0,172.9,-37.0,,*54
$GPVTG,151.7,T,151.7,M,0.0,N,0.0,K,A*23
$GPRMC,200319.0,A,4112.555842,N,07348.246755,W,0.0,151.7,300816,0.0,E,A*12
$GPGSA,A,2,02,05,06,09,12,19,,,,,,,1.3,1.0,0.8*3B
$GNGSA,A,2,02,05,06,09,12,19,,,,,,,1.3,1.0,0.8*25
$GNGSA,A,2,66,67,68,81,82,,,,,,,,1.3,1.0,0.8*2A
$GPGSV,3,1,12,02,72,001,25,05,55,223,26,06,41,073,22,09,22,053,18*7A
$GPGSV,3,2,12,12,33,244,20,19,27,136,26,13,00,174,,17,06,137,*70
$GPGSV,3,3,12,20,03,230,,23,04,032,,25,26,289,,29,16,313,*73
$GLGSV,3,1,11,66,53,042,22,82,59,341,21,81,53,101,33,67,63,182,23*65
$GLGSV,3,2,11,68,11,202,13,74,01,358,,73,07,312,,80,,,*5F
$GLGSV,3,3,11,65,00,029,,88,04,122,,83,09,313,*5B
$GPGGA,200320.0,4112.555843,N,07348.246756,W,1,06,1.0,172.9,M,-37.0,M,,*6E
$GNGNS,200320.0,4112.555843,N,07348.246756,W,AA,11,1.0,172.9,-37.0,,*5C
$GPVTG,151.7,T,151.7,M,0.0,N,0.0,K,A*23
$GPRMC,200320.0,A,4112.555843,N,07348.246756,W,0.0,151.7,300816,0.0,E,A*1A
$GPGSA,A,2,02,05,06,09,12,19,,,,,,,1.3,1.0,0.8*3B
$GNGSA,A,2,02,05,06,09,12,19,,,,,,,1.3,1.0,0.8*25
$GNGSA,A,2,66,67,68,81,82,,,,,,,,1.3,1.0,0.8*2A
$GPGSV,3,1,12,02,72,001,24,05,55,223,25,06,41,073,22,09,22,053,18*78
$GPGSV,3,2,12,12,33,244,20,19,27,136,26,13,00,174,,17,06,137,*70
$GPGSV,3,3,12,20,03,230,,23,04,032,,25,26,289,,29,16,313,*73
$GLGSV,3,1,11,66,53,042,22,82,59,341,21,81,53,101,32,67,63,182,23*64
$GLGSV,3,2,11,68,11,202,13,74,01,358,,73,07,312,,80,,,*5F
$GLGSV,3,3,11,65,00,029,,88,04,122,,83,09,313,*5B
$GPGGA,200321.0,4112.555844,N,07348.246756,W,1,06,1.0,172.9,M,-37.0,M,,*68
$GNGNS,200321.0,4112.555844,N,07348.246756,W,AA,11,1.0,172.9,-37.0,,*5A
$GPVTG,151.7,T,151.7,M,0.0,N,0.0,K,A*23
$GPRMC,200321.0,A,4112.555844,N,07348.246756,W,0.0,151.7,300816,0.0,E,A*1C
$GPGSA,A,2,02,05,06,09,12,19,,,,,,,1.3,1.0,0.8*3B
$GNGSA,A,2,02,05,06,09,12,19,,,,,,,1.3,1.0,0.8*25
$GNGSA,A,2,66,67,68,81,82,,,,,,,,1.3,1.0,0.8*2A
$GPGSV,3,1,12,02,72,001,24,05,55,223,25,06,41,073,21,09,22,053,18*7B
$GPGSV,3,2,12,12,33,244,20,19,27,136,24,13,00,174,,17,06,137,*72
$GPGSV,3,3,12,20,03,230,,23,04,032,,25,26,289,,29,16,313,*73
$GLGSV,3,1,11,66,53,042,22,82,59,341,21,81,53,101,33,67,63,182,23*65
$GLGSV,3,2,11,68,11,202,15,74,01,358,,73,07,312,,80,,,*59
$GLGSV,3,3,11,65,00,029,,88,04,122,,83,09,313,*5B
$GPGGA,200322.0,4112.555845,N,07348.246756,W,1,06,1.1,172.9,M,-37.0,M,,*6B
$GNGNS,200322.0,4112.555845,N,07348.246756,W,AA,10,1.1,172.9,-37.0,,*58
$GPVTG,151.7,T,151.7,M,0.0,N,0.0,K,A*23
$GPRMC,200322.0,A,4112.555845,N,07348.246756,W,0.0,151.7,300816,0.0,E,A*1E
$GPGSA,A,2,02,05,06,09,12,19,,,,,,,1.4,1.1,0.8*3D
$GNGSA,A,2,02,05,06,09,12,19,,,,,,,1.4,1.1,0.8*23
$GNGSA,A,2,66,67,68,81,,,,,,,,,1.4,1.1,0.8*26
$GPGSV,3,1,12,02,72,001,24,05,55,223,26,06,41,073,22,09,22,053,18*7B
$GPGSV,3,2,12,12,33,244,24,19,27,136,24,13,00,174,,17,06,137,*76
$GPGSV,3,3,12,20,03,230,,23,04,032,,25,26,289,,29,16,313,*73
$GLGSV,3,1,11,66,53,042,22,82,59,341,21,81,53,101,32,67,63,182,23*64
$GLGSV,3,2,11,68,11,202,15,74,01,358,,73,07,312,,80,,,*59
$GLGSV,3,3,11,65,00,029,,88,04,122,,83,09,313,*5B
$GPGGA,200323.0,4112.555846,N,07348.246756,W,1,06,1.1,172.9,M,-37.0,M,,*69
$GNGNS,200323.0,4112.555846,N,07348.246756,W,AA,10,1.1,172.9,-37.0,,*5A
$GPVTG,151.7,T,151.7,M,0.0,N,0.0,K,A*23
$GPRMC,200323.0,A,4112.555846,N,07348.246756,W,0.0,151.7,300816,0.0,E,A*1C
$GPGSA,A,2,02,05,06,09,12,19,,,,,,,1.4,1.1,0.8*3D
$GNGSA,A,2,02,05,06,09,12,19,,,,,,,1.4,1.1,0.8*23
$GNGSA,A,2,66,67,68,81,,,,,,,,,1.4,1.1,0.8*26
$GPGSV,3,1,12,02,72,001,24,05,55,223,25,06,41,073,21,09,22,053,18*7B
$GPGSV,3,2,12,12,33,244,24,19,27,136,24,13,00,174,,17,06,137,*76
$GPGSV,3,3,12,20,03,230,,23,04,032,,25,26,289,,29,16,313,*73
$GLGSV,3,1,11,66,53,042,22,82,59,341,21,81,53,101,32,67,63,182,23*64
$GLGSV,3,2,11,68,11,202,15,74,01,358,,73,07,312,,80,,,*59
$GLGSV,3,3,11,65,00,029,,88,04,122,,83,09,313,*5B
$GPGGA,200324.0,4112.555847,N,07348.246756,W,1,05,1.2,172.9,M,-37.0,M,,*6F
$GNGNS,200324.0,4112.555847,N,07348.246756,W,AA,09,1.2,172.9,-37.0,,*57
$GPVTG,151.7,T,151.7,M,0.0,N,0.0,K,A*23
$GPRMC,200324.0,A,4112.555847,N,07348.246756,W,0.0,151.7,300816,0.0,E,A*1A
$GPGSA,A,2,02,05,06,12,19,,,,,,,,1.5,1.2,0.9*37
$GNGSA,A,2,02,05,06,12,19,,,,,,,,1.5,1.2,0.9*29
$GNGSA,A,2,66,67,68,81,,,,,,,,,1.5,1.2,0.9*25
$GPGSV,3,1,12,02,72,001,26,05,55,223,26,06,41,073,22,09,22,053,18*79
$GPGSV,3,2,12,12,33,244,25,19,27,136,26,13,00,174,,17,06,137,*75
$GPGSV,3,3,12,20,03,230,,23,04,032,,25,26,289,,29,16,313,*73
$GLGSV,3,1,11,66,53,042,22,82,59,341,21,81,53,101,31,67,63,182,23*67
$GLGSV,3,2,11,68,11,202,17,74,01,358,,73,07,312,,80,,,*5B
$GLGSV,3,3,11,65,00,029,,88,04,122,,83,09,313,*5B
$GPGGA,200325.0,4112.555846,N,07348.246757,W,1,05,1.2,172.9,M,-37.0,M,,*6E
$GNGNS,200325.0,4112.555846,N,07348.246757,W,AA,09,1.2,172.9,-37.0,,*56
$GPVTG,151.7,T,151.7,M,0.0,N,0.0,K,A*23
$GPRMC,200325.0,A,4112.555846,N,07348.246757,W,0.0,151.7,300816,0.0,E,A*1B
$GPGSA,A,2,02,05,06,12,19,,,,,,,,1.5,1.2,0.9*37
$GNGSA,A,2,02,05,06,12,19,,,,,,,,1.5,1.2,0.9*29
$GNGSA,A,2,66,67,68,81,,,,,,,,,1.5,1.2,0.9*25
$GPGSV,3,1,12,02,72,001,26,05,55,223,26,06,41,073,21,09,22,053,18*7A
$GPGSV,3,2,12,12,33,244,24,19,27,136,25,13,00,174,,17,06,137,*77
$GPGSV,3,3,12,20,03,230,,23,04,032,,25,26,289,,29,16,313,*73
$GLGSV,3,1,11,66,53,042,22,82,59,341,21,81,53,101,32,67,63,182,24*63
$GLGSV,3,2,11,68,11,202,19,74,01,358,,73,07,312,,80,,,*55
$GLGSV,3,3,11,65,00,029,,88,04,122,,83,09,313,*5B
$GPGGA,200326.0,4112.555846,N,07348.246756,W,1,05,1.2,172.9,M,-37.0,M,,*6C
$GNGNS,200326.0,4112.555846,N,07348.246756,W,AA,09,1.2,172.9,-37.0,,*54
$GPVTG,151.7,T,151.7,M,0.0,N,0.0,K,A*23
$GPRMC,200326.0,A,4112.555846,N,07348.246756,W,0.0,151.7,300816,0.0,E,A*19
$GPGSA,A,2,02,05,06,12,19,,,,,,,,1.5,1.2,0.9*37
$GNGSA,A,2,02,05,06,12,19,,,,,,,,1.5,1.2,0.9*29
$GNGSA,A,2,66,67,68,81,,,,,,,,,1.5,1.2,0.9*25
$GPGSV,3,1,12,02,72,001,25,05,55,223,26,06,41,073,22,09,22,053,18*7A
$GPGSV,3,2,12,12,33,244,24,19,27,136,25,13,00,174,,17,06,137,*77
$GPGSV,3,3,12,20,03,230,,23,04,032,,25,26,289,,29,16,313,*73
$GLGSV,3,1,11,66,53,042,22,82,59,341,21,81,53,101,32,67,63,182,22*65
$GLGSV,3,2,11,68,11,202,19,74,01,358,,73,07,312,,80,,,*55
$GLGSV,3,3,11,65,00,029,,88,04,122,,83,09,313,*5B
$GPGGA,200327.0,4112.555846,N,07348.246754,W,1,05,1.2,172.9,M,-37.0,M,,*6F
$GNGNS,200327.0,4112.555846,N,07348.246754,W,AA,09,1.2,172.9,-37.0,,*57
$GPVTG,151.7,T,151.7,M,0.0,N,0.0,K,A*23
$GPRMC,200327.0,A,4112.555846,N,07348.246754,W,0.0,151.7,300816,0.0,E,A*1A
$GPGSA,A,2,02,05,06,12,19,,,,,,,,1.5,1.2,0.9*37
$GNGSA,A,2,02,05,06,12,19,,,,,,,,1.5,1.2,0.9*29
$GNGSA,A,2,66,67,68,81,,,,,,,,,1.5,1.2,0.9*25
$GPGSV,3,1,12,02,72,001,26,05,55,223,27,06,41,073,23,09,22,053,13*72
$GPGSV,3,2,12,12,33,244,25,19,27,136,26,13,00,174,,17,06,137,*75
$GPGSV,3,3,12,20,03,230,,23,04,032,,25,26,289,,29,16,313,*73
$GLGSV,3,1,11,66,53,042,22,82,59,341,21,81,53,101,33,67,63,182,24*62
$GLGSV,3,2,11,68,11,202,20,74,01,358,,73,07,312,,80,,,*5F
$GLGSV,3,3,11,65,00,029,,88,04,122,,83,09,313,*5B
$GPGGA,200328.0,4112.555846,N,07348.246753,W,1,06,1.1,172.9,M,-37.0,M,,*67
$GNGNS,200328.0,4112.555846,N,07348.246753,W,AA,10,1.1,172.9,-37.0,,*54
$GPVTG,151.7,T,151.7,M,0.0,N,0.0,K,A*23
$GPRMC,200328.0,A,4112.555846,N,07348.246753,W,0.0,151.7,300816,0.0,E,A*12
$GPGSA,A,2,02,05,06,09,12,19,,,,,,,1.4,1.1,0.8*3D
$GNGSA,A,2,02,05,06,09,12,19,,,,,,,1.4,1.1,0.8*23
$GNGSA,A,2,66,67,68,81,,,,,,,,,1.4,1.1,0.8*26
$GPGSV,3,1,12,02,72,001,26,05,55,223,27,06,41,073,23,09,22,053,13*72
$GPGSV,3,2,12,12,33,244,24,19,27,136,26,13,00,174,,17,06,137,*74
$GPGSV,3,3,12,20,03,230,,23,04,032,,25,26,289,,29,16,313,*73
$GLGSV,3,1,11,66,53,042,22,82,59,341,16,81,53,101,32,67,63,182,22*61
$GLGSV,3,2,11,68,11,202,19,74,01,358,,73,07,312,,80,,,*55
$GLGSV,3,3,11,65,00,029,,88,04,122,,83,09,313,*5B
$GPGGA,200329.0,4112.555844,N,07348.246752,W,1,06,1.0,172.8,M,-37.0,M,,*65
$GNGNS,200329.0,4112.555844,N,07348.246752,W,AA,11,1.0,172.8,-37.0,,*57
$GPVTG,151.7,T,151.7,M,0.0,N,0.0,K,A*23
$GPRMC,200329.0,A,4112.555844,N,07348.246752,W,0.0,151.7,300816,0.0,E,A*10
$GPGSA,A,2,02,05,06,09,12,19,,,,,,,1.3,1.0,0.8*3B
$GNGSA,A,2,02,05,06,09,12,19,,,,,,,1.3,1.0,0.8*25
$GNGSA,A,2,66,67,68,81,82,,,,,,,,1.3,1.0,0.8*2A
$GPGSV,3,1,12,02,72,001,25,05,55,223,27,06,41,073,21,09,22,053,13*73
$GPGSV,3,2,12,12,33,244,24,19,27,136,26,13,00,174,,17,06,137,*74
$GPGSV,3,3,12,20,03,230,,23,04,032,,25,26,289,,29,16,313,*73
$GLGSV,3,1,11,66,53,042,22,82,59,341,16,81,53,101,32,67,63,182,23*60
$GLGSV,3,2,11,68,11,202,19,74,01,358,,73,07,312,,80,,,*55
$GLGSV,3,3,11,65,00,029,,88,04,122,,83,09,313,*5B
$GPGGA,200330.0,4112.555844,N,07348.246752,W,1,06,1.0,172.8,M,-37.0,M,,*6D
$GNGNS,200330.0,4112.555844,N,07348.246752,W,AA,10,1.0,172.8,-37.0,,*5E
$GPVTG,151.7,T,151.7,M,0.0,N,0.0,K,A*23
$GPRMC,200330.0,A,4112.555844,N,07348.246752,W,0.0,151.7,300816,0.0,E,A*18
$GPGSA,A,2,02,05,06,09,12,19,,,,,,,1.3,1.0,0.8*3B
$GNGSA,A,2,02,05,06,09,12,19,,,,,,,1.3,1.0,0.8*25
$GNGSA,A,2,67,68,81,82,,,,,,,,,1.3,1.0,0.8*2A
$GPGSV,3,1,12,02,72,001,26,05,55,223,28,06,41,073,22,09,22,053,13*7C
$GPGSV,3,2,12,12,33,244,25,19,27,136,27,13,00,174,,17,06,137,*74
$GPGSV,3,3,12,20,03,230,,23,04,032,,25,26,289,,29,16,313,*73
$GLGSV,3,1,11,66,53,042,22,82,59,341,16,81,53,101,32,67,63,182,21*62
$GLGSV,3,2,11,68,11,202,16,74,01,358,,73,07,312,,80,,,*5A
$GLGSV,3,3,11,65,00,029,,88,04,122,,83,09,313,*5B
$GPGGA,200331.0,4112.555844,N,07348.246752,W,1,06,1.0,172.8,M,-37.0,M,,*6C
$GNGNS,200331.0,4112.555844,N,07348.246752,W,AA,10,1.0,172.8,-37.0,,*5F
$GPVTG,151.7,T,151.7,M,0.0,N,0.0,K,A*23
$GPRMC,200331.0,A,4112.555844,N,07348.246752,W,0.0,151.7,300816,0.0,E,A*19
$GPGSA,A,2,02,05,06,09,12,19,,,,,,,1.3,1.0,0.8*3B
$GNGSA,A,2,02,05,06,09,12,19,,,,,,,1.3,1.0,0.8*25
$GNGSA,A,2,67,68,81,82,,,,,,,,,1.3,1.0,0.8*2A
$GPGSV,3,1,12,02,72,001,24,05,55,223,27,06,41,073,20,09,22,053,15*75
$GPGSV,3,2,12,12,33,244,24,19,27,136,26,13,00,174,,17,06,137,*74
$GPGSV,3,3,12,20,03,230,,23,04,032,,25,26,289,,29,16,313,*73
$GLGSV,3,1,11,66,53,042,22,82,59,341,16,81,53,101,32,67,63,182,23*60
$GLGSV,3,2,11,68,11,202,16,74,01,358,,73,07,312,,80,,,*5A
$GLGSV,3,3,11,65,00,029,,88,04,122,,83,09,313,*5B
$GPGGA,200332.0,4112.555843,N,07348.246753,W,1,06,1.0,172.8,M,-37.0,M,,*69
$GNGNS,200332.0,4112.555843,N,07348.246753,W,AA,10,1.0,172.8,-37.0,,*5A
$GPVTG,151.7,T,151.7,M,0.0,N,0.0,K,A*23
$GPRMC,200332.0,A,4112.555843,N,07348.246753,W,0.0,151.7,300816,0.0,E,A*1C
$GPGSA,A,2,02,05,06,09,12,19,,,,,,,1.3,1.0,0.8*3B
$GNGSA,A,2,02,05,06,09,12,19,,,,,,,1.3,1.0,0.8*25
$GNGSA,A,2,67,68,81,82,,,,,,,,,1.3,1.0,0.8*2A
$GPGSV,3,1,12,02,72,001,26,05,55,223,27,06,41,073,22,09,22,053,15*75
$GPGSV,3,2,12,12,33,244,24,19,27,136,26,13,00,174,,17,06,137,*74
$GPGSV,3,3,12,20,03,230,,23,04,032,,25,26,289,,29,16,313,*73
$GLGSV,3,1,11,66,53,042,22,82,59,341,16,81,53,101,32,67,63,182,22*61
$GLGSV,3,2,11,68,11,202,17,74,01,358,,73,07,312,,80,,,*5B
$GLGSV,3,3,11,65,00,029,,88,04,122,,83,09,313,*5B
$GPGGA,200333.0,4112.555842,N,07348.246754,W,1,06,1.0,172.8,M,-37.0,M,,*6E
$GNGNS,200333.0,4112.555842,N,07348.246754,W,AA,10,1.0,172.8,-37.0,,*5D
$GPVTG,151.7,T,151.7,M,0.0,N,0.0,K,A*23
$GPRMC,200333.0,A,4112.555842,N,07348.246754,W,0.0,151.7,300816,0.0,E,A*1B
$GPGSA,A,2,02,05,06,09,12,19,,,,,,,1.3,1.0,0.8*3B
$GNGSA,A,2,02,05,06,09,12,19,,,,,,,1.3,1.0,0.8*25
$GNGSA,A,2,67,68,81,82,,,,,,,,,1.3,1.0,0.8*2A
$GPGSV,3,1,12,02,72,001,24,05,55,223,27,06,41,073,23,09,22,053,15*76
$GPGSV,3,2,12,12,33,244,24,19,27,136,26,13,00,174,,17,06,137,*74
$GPGSV,3,3,12,20,03,230,,23,04,032,,25,26,289,,29,16,313,*73
$GLGSV,3,1,11,66,53,042,22,82,59,341,18,81,53,101,32,67,63,182,23*6E
$GLGSV,3,2,11,68,11,202,17,74,01,358,,73,07,312,,80,,,*5B
$GLGSV,3,3,11,65,00,029,,88,04,122,,83,09,313,*5B
$GPGGA,200334.0,4112.555843,N,07348.246755,W,1,06,1.0,172.8,M,-37.0,M,,*69
$GNGNS,200334.0,4112.555843,N,07348.246755,W,AA,10,1.0,172.8,-37.0,,*5A
$GPVTG,151.7,T,151.7,M,0.0,N,0.0,K,A*23
$GPRMC,200334.0,A,4112.555843,N,07348.246755,W,0.0,151.7,300816,0.0,E,A*1C
$GPGSA,A,2,02,05,06,09,12,19,,,,,,,1.3,1.0,0.8*3B
$GNGSA,A,2,02,05,06,09,12,19,,,,,,,1.3,1.0,0.8*25
$GNGSA,A,2,67,68,81,82,,,,,,,,,1.3,1.0,0.8*2A
$GPGSV,3,1,12,02,72,001,24,05,55,223,27,06,41,073,22,09,22,053,15*77
$GPGSV,3,2,12,12,33,244,24,19,27,136,26,13,00,174,,17,06,137,*74
$GPGSV,3,3,12,20,03,230,,23,04,032,,25,26,289,,29,16,313,*73
$GLGSV,3,1,11,66,53,042,22,82,59,341,18,81,53,101,32,67,63,182,22*6F
$GLGSV,3,2,11,68,11,202,17,74,01,358,,73,07,312,,80,,,*5B
$GLGSV,3,3,11,65,00,029,,88,04,122,,83,09,313,*5B
$GPGGA,200335.0,4112.555845,N,07348.246757,W,1,06,1.0,172.8,M,-37.0,M,,*6C
$GNGNS,200335.0,4112.555845,N,07348.246757,W,AA,10,1.0,172.8,-37.0,,*5F
$GPVTG,151.7,T,151.7,M,0.0,N,0.0,K,A*23
$GPRMC,200335.0,A,4112.555845,N,07348.246757,W,0.0,151.7,300816,0.0,E,A*19
$GPGSA,A,2,02,05,06,09,12,19,,,,,,,1.3,1.0,0.8*3B
$GNGSA,A,2,02,05,06,09,12,19,,,,,,,1.3,1.0,0.8*25
$GNGSA,A,2,67,68,81,82,,,,,,,,,1.3,1.0,0.8*2A
$GPGSV,3,1,12,02,72,001,26,05,55,223,28,06,41,073,24,09,22,053,16*7F
$GPGSV,3,2,12,12,33,244,24,19,27,136,27,13,00,174,,17,06,137,*75
$GPGSV,3,3,12,20,03,230,,23,04,032,,25,26,289,,29,16,313,*73
$GLGSV,3,1,11,66,53,042,22,82,59,341,18,81,53,101,31,67,63,182,23*6D
$GLGSV,3,2,11,68,11,202,19,74,01,358,,73,07,312,,80,,,*55
$GLGSV,3,3,11,65,00,029,,88,04,122,,83,09,313,*5B
$GPGGA,200336.0,4112.555845,N,07348.246758,W,1,06,1.0,172.8,M,-37.0,M,,*60
$GNGNS,200336.0,4112.555845,N,07348.246758,W,AA,10,1.0,172.8,-37.0,,*53
$GPVTG,151.7,T,151.7,M,0.0,N,0.0,K,A*23
$GPRMC,200336.0,A,4112.555845,N,07348.246758,W,0.0,151.7,300816,0.0,E,A*15
$GPGSA,A,2,02,05,06,09,12,19,,,,,,,1.3,1.0,0.8*3B
$GNGSA,A,2,02,05,06,09,12,19,,,,,,,1.3,1.0,0.8*25
$GNGSA,A,2,67,68,81,82,,,,,,,,,1.3,1.0,0.8*2A
$GPGSV,3,1,12,02,72,001,25,05,55,223,27,06,41,073,23,09,22,053,16*74
$GPGSV,3,2,12,12,33,244,22,19,27,136,26,13,00,174,,17,06,137,*72
$GPGSV,3,3,12,20,03,230,,23,04,032,,25,26,289,,29,16,313,*73
$GLGSV,3,1,11,66,53,042,22,82,59,341,15,81,53,101,33,67,63,182,23*62
$GLGSV,3,2,11,68,11,202,19,74,01,358,,73,07,312,,80,,,*55
$GLGSV,3,3,11,65,00,029,,88,04,122,,83,09,313,*5B
$GPGGA,200337.0,4112.555847,N,07348.246759,W,1,06,1.0,172.8,M,-37.0,M,,*62
$GNGNS,200337.0,4112.555847,N,07348.246759,W,AA,10,1.0,172.8,-37.0,,*51
$GPVTG,151.7,T,151.7,M,0.0,N,0.0,K,A*23
$GPRMC,200337.0,A,4112.555847,N,07348.246759,W,0.0,151.7,300816,0.0,E,A*17
$GPGSA,A,2,02,05,06,09,12,19,,,,,,,1.3,1.0,0.8*3B
$GNGSA,A,2,02,05,06,09,12,19,,,,,,,1.3,1.0,0.8*25
$GNGSA,A,2,67,68,81,82,,,,,,,,,1.3,1.0,0.8*2A
$GPGSV,3,1,12,02,72,001,25,05,55,223,27,06,41,073,24,09,22,053,16*73
$GPGSV,3,2,12,12,33,244,23,19,27,136,26,13,00,174,,17,06,137,*73
$GPGSV,3,3,12,20,03,230,,23,04,032,,25,26,289,,29,16,313,*73
$GLGSV,3,1,11,66,53,042,22,82,59,341,15,81,53,101,33,67,63,182,22*63
$GLGSV,3,2,11,68,11,202,18,74,01,358,,73,07,312,,80,,,*54
$GLGSV,3,3,11,65,00,029,,88,04,122,,83,09,313,*5B
$GPGGA,200338.0,4112.555848,N,07348.246761,W,1,06,1.0,172.8,M,-37.0,M,,*69
$GNGNS,200338.0,4112.555848,N,07348.246761,W,AA,10,1.0,172.8,-37.0,,*5A
$GPVTG,151.7,T,151.7,M,0.0,N,0.0,K,A*23
$GPRMC,200338.0,A,4112.555848,N,07348.246761,W,0.0,151.7,300816,0.0,E,A*1C
$GPGSA,A,2,02,05,06,09,12,19,,,,,,,1.3,1.0,0.8*3B
$GNGSA,A,2,02,05,06,09,12,19,,,,,,,1.3,1.0,0.8*25
$GNGSA,A,2,67,68,81,82,,,,,,,,,1.3,1.0,0.8*2A
$GPGSV,3,1,12,02,72,001,25,05,55,223,27,06,41,073,24,09,22,053,16*73
$GPGSV,3,2,12,12,33,244,24,17,06,137,14,19,27,136,26,13,00,174,*71
$GPGSV,3,3,12,20,03,230,,23,04,032,,25,26,289,,29,16,313,*73
$GLGSV,3,1,11,66,53,042,22,82,59,341,16,81,53,101,33,67,63,182,21*63
$GLGSV,3,2,11,68,11,202,18,74,01,358,,73,07,312,,80,,,*54
$GLGSV,3,3,11,65,00,029,,88,04,122,,83,09,313,*5B
$GPGGA,200339.0,4112.555849,N,07348.246762,W,1,07,1.0,172.8,M,-37.0,M,,*6B
$GNGNS,200339.0,4112.555849,N,07348.246762,W,AA,11,1.0,172.8,-37.0,,*58
$GPVTG,151.7,T,151.7,M,0.0,N,0.0,K,A*23
$GPRMC,200339.0,A,4112.555849,N,07348.246762,W,0.0,151.7,300816,0.0,E,A*1F
$GPGSA,A,2,02,05,06,09,12,17,19,,,,,,1.3,1.0,0.8*3D
$GNGSA,A,2,02,05,06,09,12,17,19,,,,,,1.3,1.0,0.8*23
$GNGSA,A,2,67,68,81,82,,,,,,,,,1.3,1.0,0.8*2A
$GPGSV,3,1,12,02,72,001,25,05,55,223,27,06,41,073,24,09,22,053,16*73
$GPGSV,3,2,12,12,33,244,25,17,06,137,13,19,27,136,26,13,00,174,*77
$GPGSV,3,3,12,20,03,230,,23,04,032,,25,26,289,,29,16,313,*73
$GLGSV,3,1,11,66,53,042,22,82,59,341,16,81,53,101,33,67,63,182,21*63
$GLGSV,3,2,11,68,11,202,17,74,01,358,,73,07,312,,80,,,*5B
$GLGSV,3,3,11,65,00,029,,88,04,122,,83,09,313,*5B
$GPGGA,200340.0,4112.555850,N,07348.246762,W,1,07,1.0,172.8,M,-37.0,M,,*6D
$GNGNS,200340.0,4112.555850,N,07348.246762,W,AA,11,1.0,172.8,-37.0,,*5E
$GPVTG,151.7,T,151.7,M,0.0,N,0.0,K,A*23
$GPRMC,200340.0,A,4112.555850,N,07348.246762,W,0.0,151.7,300816,0.0,E,A*19
$GPGSA,A,2,02,05,06,09,12,17,19,,,,,,1.3,1.0,0.8*3D
$GNGSA,A,2,02,05,06,09,12,17,19,,,,,,1.3,1.0,0.8*23
$GNGSA,A,2,67,68,81,82,,,,,,,,,1.3,1.0,0.8*2A
$GPGSV,3,1,12,02,72,001,25,05,55,223,27,06,41,073,23,09,22,053,16*74
$GPGSV,3,2,12,12,33,244,24,17,06,137,13,19,27,136,26,13,00,174,*76
$GPGSV,3,3,12,20,03,230,,23,04,032,,25,26,289,,29,16,313,*73
$GLGSV,3,1,11,66,53,042,22,82,59,341,16,81,53,101,33,67,63,182,22*60
$GLGSV,3,2,11,68,11,202,17,74,01,358,,73,07,312,,80,,,*5B
$GLGSV,3,3,11,65,00,029,,88,04,122,,83,09,313,*5B
$GPGGA,200341.0,4112.555849,N,07348.246762,W,1,07,1.0,172.8,M,-37.0,M,,*64
$GNGNS,200341.0,4112.555849,N,07348.246762,W,AA,11,1.0,172.8,-37.0,,*57
$GPVTG,151.7,T,151.7,M,0.0,N,0.0,K,A*23
$GPRMC,200341.0,A,4112.555849,N,07348.246762,W,0.0,151.7,300816,0.0,E,A*10
$GPGSA,A,2,02,05,06,09,12,17,19,,,,,,1.3,1.0,0.8*3D
$GNGSA,A,2,02,05,06,09,12,17,19,,,,,,1.3,1.0,0.8*23
$GNGSA,A,2,67,68,81,82,,,,,,,,,1.3,1.0,0.8*2A
$GPGSV,3,1,12,02,72,001,24,05,55,223,26,06,41,073,23,09,22,053,16*74
$GPGSV,3,2,12,12,33,244,23,17,06,137,13,19,27,136,25,13,00,174,*72
$GPGSV,3,3,12,20,03,230,,23,04,032,,25,26,289,,29,16,313,*73
$GLGSV,3,1,11,66,53,042,22,82,59,341,16,81,53,101,33,67,63,182,21*63
$GLGSV,3,2,11,68,11,202,16,74,01,358,,73,07,312,,80,,,*5A
$GLGSV,3,3,11,65,00,029,,88,04,122,,83,09,313,*5B
$GPGGA,200342.0,4112.555848,N,07348.246762,W,1,07,1.0,172.8,M,-37.0,M,,*66
$GNGNS,200342.0,4112.555848,N,07348.246762,W,AA,11,1.0,172.8,-37.0,,*55
$GPVTG,151.7,T,151.7,M,0.0,N,0.0,K,A*23
$GPRMC,200342.0,A,4112.555848,N,07348.246762,W,0.0,151.7,300816,0.0,E,A*12
$GPGSA,A,2,02,05,06,09,12,17,19,,,,,,1.3,1.0,0.8*3D
$GNGSA,A,2,02,05,06,09,12,17,19,,,,,,1.3,1.0,0.8*23
$GNGSA,A,2,67,68,81,82,,,,,,,,,1.3,1.0,0.8*2A
$GPGSV,3,1,12,02,72,001,25,05,55,223,27,06,41,073,23,09,22,053,16*74
$GPGSV,3,2,12,12,33,244,25,17,06,137,13,19,27,136,27,13,00,174,*76
$GPGSV,3,3,12,20,03,230,,23,04,032,,25,26,289,,29,16,313,*73
$GLGSV,3,1,11,66,53,042,22,82,59,341,16,81,53,101,32,67,63,182,22*61
$GLGSV,3,2,11,68,11,202,18,74,01,358,,73,07,312,,80,,,*54
$GLGSV,3,3,11,65,00,029,,88,04,122,,83,09,313,*5B
$GPGGA,200343.0,4112.555848,N,07348.246761,W,1,06,1.1,172.8,M,-37.0,M,,*64
$GNGNS,200343.0,4112.555848,N,07348.246761,W,AA,10,1.1,172.8,-37.0,,*57
$GPVTG,151.7,T,151.7,M,0.0,N,0.0,K,A*23
$GPRMC,200343.0,A,4112.555848,N,07348.246761,W,0.0,151.7,300816,0.0,E,A*10
$GPGSA,A,2,02,05,06,12,17,19,,,,,,,1.4,1.1,0.9*33
$GNGSA,A,2,02,05,06,12,17,19,,,,,,,1.4,1.1,0.9*2D
$GNGSA,A,2,67,68,81,82,,,,,,,,,1.4,1.1,0.9*2D
$GPGSV,3,1,12,02,72,001,24,05,55,223,26,06,41,073,22,09,22,053,16*75
$GPGSV,3,2,12,12,33,244,24,17,06,137,13,19,27,136,25,13,00,174,*75
$GPGSV,3,3,12,20,03,230,,23,04,032,,25,26,289,,29,16,313,*73
$GLGSV,3,1,11,66,53,042,22,82,59,341,13,81,53,101,32,67,63,182,22*64
$GLGSV,3,2,11,68,11,202,19,74,01,358,,73,07,312,,80,,,*55
$GLGSV,3,3,11,65,00,029,,88,04,122,,83,09,313,*5B
$GPGGA,200344.0,4112.555848,N,07348.246760,W,1,06,1.1,172.8,M,-37.0,M,,*62
$GNGNS,200344.0,4112.555848,N,07348.246760,W,AA,10,1.1,172.8,-37.0,,*51
$GPVTG,151.7,T,151.7,M,0.0,N,0.0,K,A*23
$GPRMC,200344.0,A,4112.555848,N,07348.246760,W,0.0,151.7,300816,0.0,E,A*16
$GPGSA,A,2,02,05,06,12,17,19,,,,,,,1.4,1.1,0.9*33
$GNGSA,A,2,02,05,06,12,17,19,,,,,,,1.4,1.1,0.9*2D
$GNGSA,A,2,67,68,81,82,,,,,,,,,1.4,1.1,0.9*2D
$GPGSV,3,1,12,02,72,001,24,05,55,223,26,06,41,073,23,09,22,053,16*74
$GPGSV,3,2,12,12,33,244,23,17,06,137,13,19,27,136,26,13,00,174,*71
$GPGSV,3,3,12,20,03,230,,23,04,032,,25,26,289,,29,16,313,*73
$GLGSV,3,1,11,66,53,042,22,82,59,341,13,81,53,101,32,67,63,182,22*64
$GLGSV,3,2,11,68,11,202,19,74,01,358,,73,07,312,,80,,,*55
$GLGSV,3,3,11,65,00,029,,88,04,122,,83,09,313,*5B
$GPGGA,200345.0,4112.555847,N,07348.246760,W,1,06,1.1,172.8,M,-37.0,M,,*6C
$GNGNS,200345.0,4112.555847,N,07348.246760,W,AA,10,1.1,172.8,-37.0,,*5F
$GPVTG,151.7,T,151.7,M,0.0,N,0.0,K,A*23
$GPRMC,200345.0,A,4112.555847,N,07348.246760,W,0.0,151.7,300816,0.0,E,A*18
$GPGSA,A,2,02,05,06,12,17,19,,,,,,,1.4,1.1,0.9*33
$GNGSA,A,2,02,05,06,12,17,19,,,,,,,1.4,1.1,0.9*2D
$GNGSA,A,2,67,68,81,82,,,,,,,,,1.4,1.1,0.9*2D
$GPGSV,3,1,12,02,72,001,24,05,55,223,25,06,41,073,22,09,22,053,16*76
$GPGSV,3,2,12,12,33,244,24,17,06,137,13,19,27,136,25,13,00,174,*75
$GPGSV,3,3,12,20,03,230,,23,04,032,,25,26,289,,29,16,313,*73
$GLGSV,3,1,10,82,59,341,17,81,53,101,32,67,63,182,23,68,11,202,19*66
$GLGSV,3,2,10,74,01,358,,73,07,312,,80,,,,65,00,029,*5A
$GLGSV,3,3,10,88,04,122,,83,09,313,*62
$GPGGA,200346.0,4112.555847,N,07348.246760,W,1,06,1.1,172.8,M,-37.0,M,,*6F
$GNGNS,200346.0,4112.555847,N,07348.246760,W,AA,10,1.1,172.8,-37.0,,*5C
$GPVTG,151.7,T,151.7,M,0.0,N,0.0,K,A*23
$GPRMC,200346.0,A,4112.555847,N,07348.246760,W,0.0,151.7,300816,0.0,E,A*1B
$GPGSA,A,2,02,05,06,12,17,19,,,,,,,1.4,1.1,0.9*33
$GNGSA,A,2,02,05,06,12,17,19,,,,,,,1.4,1.1,0.9*2D
$GNGSA,A,2,67,68,81,82,,,,,,,,,1.4,1.1,0.9*2D
$GPGSV,3,1,12,02,72,001,24,05,55,223,27,06,41,073,24,09,22,053,16*72
$GPGSV,3,2,12,12,33,244,25,17,06,137,13,19,27,136,26,13,00,174,*77
$GPGSV,3,3,12,20,03,230,,23,04,032,,25,26,289,,29,16,313,*73
$GLGSV,3,1,11,82,59,341,17,81,53,101,32,67,63,182,20,68,11,202,19*64
$GLGSV,3,2,11,74,01,358,,73,07,312,,66,53,042,,80,,,*53
$GLGSV,3,3,11,65,00,029,,88,04,122,,83,09,313,*5B
$GPGGA,200347.0,4112.555847,N,07348.246759,W,1,06,1.1,172.8,M,-37.0,M,,*64
$GNGNS,200347.0,4112.555847,N,07348.246759,W,AA,10,1.1,172.8,-37.0,,*57
$GPVTG,151.7,T,151.7,M,0.0,N,0.0,K,A*23
$GPRMC,200347.0,A,4112.555847,N,07348.246759,W,0.0,151.7,300816,0.0,E,A*10
$GPGSA,A,2,02,05,06,12,17,19,,,,,,,1.4,1.1,0.9*33
$GNGSA,A,2,02,05,06,12,17,19,,,,,,,1.4,1.1,0.9*2D
$GNGSA,A,2,67,68,81,82,,,,,,,,,1.4,1.1,0.9*2D
$GPGSV,3,1,12,02,72,001,25,05,55,223,24,06,41,073,22,09,22,053,16*76
$GPGSV,3,2,12,12,33,244,22,17,06,137,13,19,27,136,25,13,00,174,*73
$GPGSV,3,3,12,20,03,230,,23,04,032,,25,26,289,,29,16,313,*73
$GLGSV,3,1,11,82,59,341,17,81,53,101,33,67,63,182,23,68,11,202,19*66
$GLGSV,3,2,11,74,01,358,,73,07,312,,66,53,042,,80,,,*53
$GLGSV,3,3,11,65,00,029,,88,04,122,,83,09,313,*5B
$GPGGA,200348.0,4112.555846,N,07348.246759,W,1,06,1.1,172.8,M,-37.0,M,,*6A
$GNGNS,200348.0,4112.555846,N,07348.246759,W,AA,10,1.1,172.8,-37.0,,*59
$GPVTG,151.7,T,151.7,M,0.0,N,0.0,K,A*23
$GPRMC,200348.0,A,4112.555846,N,07348.246759,W,0.0,151.7,300816,0.0,E,A*1E
$GPGSA,A,2,02,05,06,12,17,19,,,,,,,1.4,1.1,0.9*33
$GNGSA,A,2,02,05,06,12,17,19,,,,,,,1.4,1.1,0.9*2D
$GNGSA,A,2,67,68,81,82,,,,,,,,,1.4,1.1,0.9*2D
$GPGSV,3,1,12,02,72,001,26,05,55,223,24,06,41,073,28,09,22,053,16*7F
$GPGSV,3,2,12,12,33,244,21,17,06,137,13,19,27,136,25,13,00,174,*70
$GPGSV,3,3,12,20,03,230,,23,04,032,,25,26,289,,29,16,313,*73
$GLGSV,3,1,11,82,59,341,21,81,53,101,32,67,63,182,24,68,11,202,17*6B
$GLGSV,3,2,11,74,01,358,,73,07,312,,66,53,042,,80,,,*53
$GLGSV,3,3,11,65,00,029,,88,04,122,,83,09,313,*5B
$GPGGA,200349.0,4112.555848,N,07348.246759,W,1,06,1.1,172.8,M,-37.0,M,,*65
$GNGNS,200349.0,4112.555848,N,07348.246759,W,AA,10,1.1,172.8,-37.0,,*56
$GPVTG,151.7,T,151.7,M,0.0,N,0.0,K,A*23
$GPRMC,200349.0,A,4112.555848,N,07348.246759,W,0.0,151.7,300816,0.0,E,A*11
$GPGSA,A,2,02,05,06,12,17,19,,,,,,,1.4,1.1,0.9*33
$GNGSA,A,2,02,05,06,12,17,19,,,,,,,1.4,1.1,0.9*2D
$GNGSA,A,2,67,68,81,82,,,,,,,,,1.4,1.1,0.9*2D
$GPGSV,3,1,12,02,72,001,25,05,55,223,23,06,41,073,25,09,22,053,16*76
$GPGSV,3,2,12,12,33,244,17,17,06,137,13,19,27,136,25,13,00,174,*75
$GPGSV,3,3,12,20,03,230,,23,04,032,,25,26,289,,29,16,313,*73
$GLGSV,3,1,11,66,53,042,26,82,59,341,22,81,53,101,32,67,63,182,25*65
$GLGSV,3,2,11,68,11,202,17,74,01,358,,73,07,312,,80,,,*5B
$GLGSV,3,3,11,65,00,029,,88,04,122,,83,09,313,*5B
$GPGGA,200350.0,4112.555850,N,07348.246759,W,1,06,1.0,172.8,M,-37.0,M,,*65
$GNGNS,200350.0,4112.555850,N,07348.246759,W,AA,11,1.0,172.8,-37.0,,*57
$GPVTG,151.7,T,151.7,M,0.0,N,0.0,K,A*23
$GPRMC,200350.0,A,4112.555850,N,07348.246759,W,0.0,151.7,300816,0.0,E,A*10
$GPGSA,A,2,02,05,06,12,17,19,,,,,,,1.3,1.0,0.9*35
$GNGSA,A,2,02,05,06,12,17,19,,,,,,,1.3,1.0,0.9*2B
$GNGSA,A,2,66,67,68,81,82,,,,,,,,1.3,1.0,0.9*2B
$GPGSV,3,1,12,02,72,001,26,05,55,223,24,06,41,073,28,09,22,053,16*7F
$GPGSV,3,2,12,12,33,244,21,17,06,137,13,19,27,136,26,13,00,174,*73
$GPGSV,3,3,12,20,03,230,,23,04,032,,25,26,289,,29,16,313,*73
$GLGSV,3,1,11,66,53,042,28,82,59,341,23,81,53,101,32,67,63,182,23*6C
$GLGSV,3,2,11,68,11,202,17,74,01,358,,73,07,312,,80,,,*5B
$GLGSV,3,3,11,65,00,029,,88,04,122,,83,09,313,*5B
$GPGGA,200351.0,4112.555854,N,07348.246760,W,1,05,1.1,172.8,M,-37.0,M,,*68
$GNGNS,200351.0,4112.555854,N,07348.246760,W,AA,10,1.1,172.8,-37.0,,*58
$GPVTG,151.7,T,151.7,M,0.0,N,0.0,K,A*23
$GPRMC,200351.0,A,4112.555854,N,07348.246760,W,0.0,151.7,300816,0.0,E,A*1F
$GPGSA,A,2,02,05,06,12,19,,,,,,,,1.4,1.1,0.9*35
$GNGSA,A,2,02,05,06,12,19,,,,,,,,1.4,1.1,0.9*2B
$GNGSA,A,2,66,67,68,81,82,,,,,,,,1.4,1.1,0.9*2D
$GPGSV,3,1,12,02,72,001,26,05,55,223,25,06,41,073,29,09,22,053,16*7F
$GPGSV,3,2,12,12,33,244,20,17,06,137,13,19,27,136,18,13,00,174,*7F
$GPGSV,3,3,12,20,03,230,,23,04,032,,25,26,289,,29,16,313,*73
$GLGSV,3,1,11,66,53,042,29,82,59,341,21,81,53,101,31,67,63,182,24*6B
$GLGSV,3,2,11,68,11,202,15,74,01,358,,73,07,312,,80,,,*59
$GLGSV,3,3,11,65,00,029,,88,04,122,,83,09,313,*5B
$GPGGA,200352.0,4112.555860,N,07348.246761,W,1,05,1.1,172.8,M,-37.0,M,,*6D
$GNGNS,200352.0,4112.555860,N,07348.246761,W,AA,10,1.1,172.8,-37.0,,*5D
$GPVTG,151.7,T,151.7,M,0.0,N,0.0,K,A*23
$GPRMC,200352.0,A,4112.555860,N,07348.246761,W,0.0,151.7,300816,0.0,E,A*1A
$GPGSA,A,2,02,05,06,12,19,,,,,,,,1.4,1.1,0.9*35
$GNGSA,A,2,02,05,06,12,19,,,,,,,,1.4,1.1,0.9*2B
$GNGSA,A,2,66,67,68,81,82,,,,,,,,1.4,1.1,0.9*2D
$GPGSV,3,1,12,02,72,001,27,05,55,223,24,06,41,073,27,09,22,053,16*71
$GPGSV,3,2,12,12,33,244,18,17,06,137,13,19,27,136,17,13,00,174,*7B
$GPGSV,3,3,12,20,03,230,,23,04,032,,25,26,289,,29,16,313,*73
$GLGSV,3,1,11,66,53,042,27,82,59,341,19,81,53,101,32,67,63,182,25*6C
$GLGSV,3,2,11,68,11,202,15,74,01,358,,73,07,312,,80,,,*59
$GLGSV,3,3,11,65,00,029,,88,04,122,,83,09,313,*5B
$GPGGA,200353.0,4112.555863,N,07348.246761,W,1,05,1.1,172.8,M,-37.0,M,,*6F
$GNGNS,200353.0,4112.555863,N,07348.246761,W,AA,10,1.1,172.8,-37.0,,*5F
$GPVTG,151.7,T,151.7,M,0.0,N,0.0,K,A*23
$GPRMC,200353.0,A,4112.555863,N,07348.246761,W,0.0,151.7,300816,0.0,E,A*18
$GPGSA,A,2,02,05,06,12,19,,,,,,,,1.4,1.1,0.9*35
$GNGSA,A,2,02,05,06,12,19,,,,,,,,1.4,1.1,0.9*2B
$GNGSA,A,2,66,67,68,81,82,,,,,,,,1.4,1.1,0.9*2D
$GPGSV,3,1,12,02,72,001,26,05,55,223,24,06,41,073,27,09,22,053,16*70
$GPGSV,3,2,12,12,33,244,20,17,06,137,13,19,27,136,18,13,00,174,*7F
$GPGSV,3,3,12,20,03,230,,23,04,032,,25,26,289,,29,16,313,*73
$GLGSV,3,1,11,66,53,042,27,82,59,341,21,81,53,101,33,67,63,182,24*67
$GLGSV,3,2,11,68,11,202,16,74,01,358,,73,07,312,,80,,,*5A
$GLGSV,3,3,11,65,00,029,,88,04,122,,83,09,313,*5B
$GPGGA,200354.0,4112.555867,N,07348.246762,W,1,05,1.1,172.8,M,-37.0,M,,*6F
$GNGNS,200354.0,4112.555867,N,07348.246762,W,AA,10,1.1,172.8,-37.0,,*5F
$GPVTG,151.7,T,151.7,M,0.0,N,0.0,K,A*23
$GPRMC,200354.0,A,4112.555867,N,07348.246762,W,0.0,151.7,300816,0.0,E,A*18
$GPGSA,A,2,02,05,06,12,19,,,,,,,,1.4,1.1,0.9*35
$GNGSA,A,2,02,05,06,12,19,,,,,,,,1.4,1.1,0.9*2B
$GNGSA,A,2,66,67,68,81,82,,,,,,,,1.4,1.1,0.9*2D
$GPGSV,3,1,12,02,72,001,25,05,55,223,22,06,41,073,28,09,22,053,16*7A
$GPGSV,3,2,12,12,33,244,18,17,06,137,13,19,27,136,24,13,00,174,*7B
$GPGSV,3,3,12,20,03,230,,23,04,032,,25,26,289,,29,16,313,*73
$GLGSV,3,1,11,66,53,042,29,82,59,341,24,81,53,101,32,67,63,182,24*6D
$GLGSV,3,2,11,68,11,202,16,74,01,358,,73,07,312,,80,,,*5A
$GLGSV,3,3,11,65,00,029,,88,04,122,,83,09,313,*5B
$GPGGA,200355.0,4112.555869,N,07348.246762,W,1,05,1.1,172.8,M,-37.0,M,,*60
$GNGNS,200355.0,4112.555869,N,07348.246762,W,AA,10,1.1,172.8,-37.0,,*50
$GPVTG,151.7,T,151.7,M,0.0,N,0.0,K,A*23
$GPRMC,200355.0,A,4112.555869,N,07348.246762,W,0.0,151.7,300816,0.0,E,A*17
$GPGSA,A,2,02,05,06,12,19,,,,,,,,1.4,1.1,0.9*35
$GNGSA,A,2,02,05,06,12,19,,,,,,,,1.4,1.1,0.9*2B
$GNGSA,A,2,66,67,68,81,82,,,,,,,,1.4,1.1,0.9*2D
$GPGSV,3,1,12,02,72,001,25,05,55,223,22,06,41,073,29,09,22,053,16*7B
$GPGSV,3,2,12,12,33,244,21,17,06,137,13,19,27,136,24,13,00,174,*71
$GPGSV,3,3,12,20,03,230,,23,04,032,,25,26,289,,29,16,313,*73
$GLGSV,3,1,11,66,53,042,28,82,59,341,21,81,53,101,32,67,63,182,23*6E
$GLGSV,3,2,11,68,11,202,16,74,01,358,,73,07,312,,80,,,*5A
$GLGSV,3,3,11,65,00,029,,88,04,122,,83,09,313,*5B
$GPGGA,200356.0,4112.555870,N,07348.246763,W,1,05,1.1,172.8,M,-37.0,M,,*6A
$GNGNS,200356.0,4112.555870,N,07348.246763,W,AA,10,1.1,172.8,-37.0,,*5A
$GPVTG,151.7,T,151.7,M,0.0,N,0.0,K,A*23
$GPRMC,200356.0,A,4112.555870,N,07348.246763,W,0.0,151.7,300816,0.0,E,A*1D
$GPGSA,A,2,02,05,06,12,19,,,,,,,,1.4,1.1,0.9*35
$GNGSA,A,2,02,05,06,12,19,,,,,,,,1.4,1.1,0.9*2B
$GNGSA,A,2,66,67,68,81,82,,,,,,,,1.4,1.1,0.9*2D
$GPGSV,3,1,12,02,72,001,26,05,55,223,24,06,41,073,30,09,22,053,16*76
$GPGSV,3,2,12,12,33,244,22,17,06,137,13,19,27,136,24,13,00,174,*72
$GPGSV,3,3,12,20,03,230,,23,04,032,,25,26,289,,29,16,313,*73
$GLGSV,3,1,11,66,53,042,28,82,59,341,20,81,53,101,31,67,63,182,21*6E
$GLGSV,3,2,11,68,11,202,16,74,01,358,,73,07,312,,80,,,*5A
$GLGSV,3,3,11,65,00,029,,88,04,122,,83,09,313,*5B
$GPGGA,200357.0,4112.555871,N,07348.246764,W,1,05,1.1,172.8,M,-37.0,M,,*6D
$GNGNS,200357.0,4112.555871,N,07348.246764,W,AA,10,1.1,172.8,-37.0,,*5D
$GPVTG,151.7,T,151.7,M,0.0,N,0.0,K,A*23
$GPRMC,200357.0,A,4112.555871,N,07348.246764,W,0.0,151.7,300816,0.0,E,A*1A
$GPGSA,A,2,02,05,06,12,19,,,,,,,,1.4,1.1,0.9*35
$GNGSA,A,2,02,05,06,12,19,,,,,,,,1.4,1.1,0.9*2B
$GNGSA,A,2,66,67,68,81,82,,,,,,,,1.4,1.1,0.9*2D
$GPGSV,3,1,12,02,72,001,27,05,55,223,22,06,41,073,29,09,22,053,16*79
$GPGSV,3,2,12,12,33,244,22,17,06,137,13,19,27,136,24,13,00,174,*72
$GPGSV,3,3,12,20,03,230,,23,04,032,,25,26,289,,29,16,313,*73
$GLGSV,3,1,11,66,53,042,27,82,59,341,21,81,53,101,29,67,63,182,19*62
$GLGSV,3,2,11,68,11,202,14,74,01,358,,73,07,312,,80,,,*58
$GLGSV,3,3,11,65,00,029,,88,04,122,,83,09,313,*5B
$GPGGA,200358.0,4112.555871,N,07348.246764,W,1,05,1.1,172.8,M,-37.0,M,,*62
$GNGNS,200358.0,4112.555871,N,07348.246764,W,AA,10,1.1,172.8,-37.0,,*52
$GPVTG,151.7,T,151.7,M,0.0,N,0.0,K,A*23
$GPRMC,200358.0,A,4112.555871,N,07348.246764,W,0.0,151.7,300816,0.0,E,A*15
$GPGSA,A,2,02,05,06,12,19,,,,,,,,1.4,1.1,0.9*35
$GNGSA,A,2,02,05,06,12,19,,,,,,,,1.4,1.1,0.9*2B
$GNGSA,A,2,66,67,68,81,82,,,,,,,,1.4,1.1,0.9*2D
$GPGSV,3,1,11,02,72,001,25,05,55,223,24,06,41,073,31,12,33,244,22*7E
$GPGSV,3,2,11,17,06,137,13,19,27,136,13,13,00,174,,20,03,230,*74
$GPGSV,3,3,11,23,04,032,,25,26,289,,29,16,313,*40
$GLGSV,3,1,11,66,53,042,28,82,59,341,21,81,53,101,32,67,63,182,18*66
$GLGSV,3,2,11,68,11,202,14,74,01,358,,73,07,312,,80,,,*58
$GLGSV,3,3,11,65,00,029,,88,04,122,,83,09,313,*5B
$GPGGA,200359.0,4112.555873,N,07348.246765,W,1,05,1.1,172.8,M,-37.0,M,,*60
$GNGNS,200359.0,4112.555873,N,07348.246765,W,AA,10,1.1,172.8,-37.0,,*50
$GPVTG,151.7,T,151.7,M,0.0,N,0.0,K,A*23
$GPRMC,200359.0,A,4112.555873,N,07348.246765,W,0.0,151.7,300816,0.0,E,A*17
$GPGSA,A,2,02,05,06,12,19,,,,,,,,1.4,1.1,0.9*35
$GNGSA,A,2,02,05,06,12,19,,,,,,,,1.4,1.1,0.9*2B
$GNGSA,A,2,66,67,68,81,82,,,,,,,,1.4,1.1,0.9*2D
$GPGSV,3,1,12,02,72,001,26,05,55,223,23,06,41,073,28,12,33,244,15*75
$GPGSV,3,2,12,17,06,137,13,19,27,136,13,29,16,313,14,09,22,053,*70
$GPGSV,3,3,12,13,00,174,,20,03,230,,23,04,032,,25,26,289,*7E
$GLGSV,3,1,11,66,53,042,24,82,59,341,21,81,53,101,30,67,63,182,18*68
$GLGSV,3,2,11,68,11,202,18,74,01,358,,73,07,312,,80,,,*54
$GLGSV,3,3,11,65,00,029,,88,04,122,,83,09,313,*5B
$GPGGA,200400.0,4112.555873,N,07348.246764,W,1,06,0.9,172.8,M,-37.0,M,,*60
$GNGNS,200400.0,4112.555873,N,07348.246764,W,AA,11,0.9,172.8,-37.0,,*52
$GPVTG,151.7,T,151.7,M,0.0,N,0.0,K,A*23
$GPRMC,200400.0,A,4112.555873,N,07348.246764,W,0.0,151.7,300816,0.0,E,A*1D
$GPGSA,A,2,02,05,06,12,19,29,,,,,,,1.2,0.9,0.8*30
$GNGSA,A,2,02,05,06,12,19,29,,,,,,,1.2,0.9,0.8*2E
$GNGSA,A,2,66,67,68,81,82,,,,,,,,1.2,0.9,0.8*23
$GPGSV,3,1,12,02,72,001,25,05,55,223,22,06,41,073,27,12,33,244,20*7E
$GPGSV,3,2,12,17,06,137,13,19,27,136,13,29,16,313,14,09,22,053,*70
$GPGSV,3,3,12,13,00,174,,20,03,230,,23,04,032,,25,26,289,*7E
$GLGSV,3,1,11,66,53,042,26,82,59,341,21,81,53,101,28,67,63,182,17*6C
$GLGSV,3,2,11,68,11,202,18,74,01,358,,73,07,312,,80,,,*54
$GLGSV,3,3,11,65,00,029,,88,04,122,,83,09,313,*5B
$GPGGA,200401.0,4112.555870,N,07348.246760,W,1,06,0.9,172.8,M,-37.0,M,,*66
$GNGNS,200401.0,4112.555870,N,07348.246760,W,AA,11,0.9,172.8,-37.0,,*54
$GPVTG,151.7,T,151.7,M,0.0,N,0.0,K,A*23
$GPRMC,200401.0,A,4112.555870,N,07348.246760,W,0.0,151.7,300816,0.0,E,A*1B
$GPGSA,A,2,02,05,06,12,19,29,,,,,,,1.2,0.9,0.8*30
$GNGSA,A,2,02,05,06,12,19,29,,,,,,,1.2,0.9,0.8*2E
$GNGSA,A,2,66,67,68,81,82,,,,,,,,1.2,0.9,0.8*23
$GPGSV,3,1,12,02,72,001,27,05,55,223,23,06,41,073,29,12,33,244,20*73
$GPGSV,3,2,12,17,06,137,13,19,27,136,13,29,16,313,14,09,22,053,*70
$GPGSV,3,3,12,13,00,174,,20,03,230,,23,04,032,,25,26,289,*7E
$GLGSV,3,1,11,66,53,042,25,82,59,341,20,81,53,101,31,67,63,182,19*68
$GLGSV,3,2,11,68,11,202,19,74,01,358,,73,07,312,,80,,,*55
$GLGSV,3,3,11,65,00,029,,88,04,122,,83,09,313,*5B
$GPGGA,200402.0,4112.555869,N,07348.246759,W,1,06,0.9,172.8,M,-37.0,M,,*67
$GNGNS,200402.0,4112.555869,N,07348.246759,W,AA,11,0.9,172.8,-37.0,,*55
$GPVTG,151.7,T,151.7,M,0.0,N,0.0,K,A*23
$GPRMC,200402.0,A,4112.555869,N,07348.246759,W,0.0,151.7,300816,0.0,E,A*1A
$GPGSA,A,2,02,05,06,12,19,29,,,,,,,1.2,0.9,0.8*30
$GNGSA,A,2,02,05,06,12,19,29,,,,,,,1.2,0.9,0.8*2E
$GNGSA,A,2,66,67,68,81,82,,,,,,,,1.2,0.9,0.8*23
$GPGSV,3,1,11,02,72,001,24,05,55,223,22,06,41,073,32,12,33,244,15*7E
$GPGSV,3,2,11,19,27,136,13,29,16,313,14,09,22,053,,13,00,174,*74
$GPGSV,3,3,11,20,03,230,,23,04,032,,25,26,289,*4D
$GLGSV,3,1,11,66,53,042,29,82,59,341,21,81,53,101,33,67,63,182,20*6D
$GLGSV,3,2,11,68,11,202,19,74,01,358,,73,07,312,,80,,,*55
$GLGSV,3,3,11,65,00,029,,88,04,122,,83,09,313,*5B
$GPGGA,200403.0,4112.555870,N,07348.246759,W,1,06,0.9,172.8,M,-37.0,M,,*6E
$GNGNS,200403.0,4112.555870,N,07348.246759,W,AA,11,0.9,172.8,-37.0,,*5C
$GPVTG,151.7,T,151.7,M,0.0,N,0.0,K,A*23
$GPRMC,200403.0,A,4112.555870,N,07348.246759,W,0.0,151.7,300816,0.0,E,A*13
$GPGSA,A,2,02,05,06,12,19,29,,,,,,,1.2,0.9,0.8*30
$GNGSA,A,2,02,05,06,12,19,29,,,,,,,1.2,0.9,0.8*2E
$GNGSA,A,2,66,67,68,81,82,,,,,,,,1.2,0.9,0.8*23
$GPGSV,3,1,12,02,72,001,24,05,55,223,23,06,41,073,31,12,33,244,15*7F
$GPGSV,3,2,12,19,27,136,14,29,16,313,14,09,22,053,,13,00,174,*70
$GPGSV,3,3,12,17,06,137,,20,03,230,,23,04,032,,25,26,289,*7B
$GLGSV,3,1,11,66,53,042,29,82,59,341,20,81,53,101,32,67,63,182,18*66
$GLGSV,3,2,11,68,11,202,16,74,01,358,,73,07,312,,80,,,*5A
$GLGSV,3,3,11,65,00,029,,88,04,122,,83,09,313,*5B
$GPGGA,200404.0,4112.555870,N,07348.246759,W,1,06,0.9,172.8,M,-37.0,M,,*69
$GNGNS,200404.0,4112.555870,N,07348.246759,W,AA,11,0.9,172.8,-37.0,,*5B
$GPVTG,151.7,T,151.7,M,0.0,N,0.0,K,A*23
$GPRMC,200404.0,A,4112.555870,N,07348.246759,W,0.0,151.7,300816,0.0,E,A*14
$GPGSA,A,2,02,05,06,12,19,29,,,,,,,1.2,0.9,0.8*30
$GNGSA,A,2,02,05,06,12,19,29,,,,,,,1.2,0.9,0.8*2E
$GNGSA,A,2,66,67,68,81,82,,,,,,,,1.2,0.9,0.8*23
$GPGSV,3,1,12,02,72,001,23,05,55,223,22,06,41,073,30,12,33,244,15*78
$GPGSV,3,2,12,19,27,136,18,29,16,313,14,09,22,053,,13,00,174,*7C
$GPGSV,3,3,12,17,06,137,,20,03,230,,23,04,032,,25,26,289,*7B
$GLGSV,3,1,11,66,53,042,29,82,59,341,20,81,53,101,32,67,63,182,19*67
$GLGSV,3,2,11,68,11,202,16,74,01,358,,73,07,312,,80,,,*5A
$GLGSV,3,3,11,65,00,029,,88,04,122,,83,09,313,*5B
$GPGGA,200405.0,4112.555871,N,07348.246758,W,1,06,0.9,172.8,M,-37.0,M,,*68
$GNGNS,200405.0,4112.555871,N,07348.246758,W,AA,11,0.9,172.8,-37.0,,*5A
$GPVTG,151.7,T,151.7,M,0.0,N,0.0,K,A*23
$GPRMC,200405.0,A,4112.555871,N,07348.246758,W,0.0,151.7,300816,0.0,E,A*15
$GPGSA,A,2,02,05,06,12,19,29,,,,,,,1.2,0.9,0.8*30
$GNGSA,A,2,02,05,06,12,19,29,,,,,,,1.2,0.9,0.8*2E
$GNGSA,A,2,66,67,68,81,82,,,,,,,,1.2,0.9,0.8*23
$GPGSV,3,1,12,02,72,001,24,05,55,223,21,06,41,073,31,12,33,244,15*7D
$GPGSV,3,2,12,19,27,136,18,29,16,313,14,09,22,053,,13,00,174,*7C
$GPGSV,3,3,12,17,06,137,,20,03,230,,23,04,032,,25,26,289,*7B
$GLGSV,3,1,11,66,53,042,28,82,59,341,20,81,53,101,32,67,63,182,18*67
$GLGSV,3,2,11,68,11,202,16,74,01,358,,73,07,312,,80,,,*5A
$GLGSV,3,3,11,65,00,029,,88,04,122,,83,09,313,*5B
$GPGGA,200406.0,4112.555871,N,07348.246758,W,1,06,0.9,172.8,M,-37.0,M,,*6B
$GNGNS,200406.0,4112.555871,N,07348.246758,W,AA,11,0.9,172.8,-37.0,,*59
$GPVTG,151.7,T,151.7,M,0.0,N,0.0,K,A*23
$GPRMC,200406.0,A,4112.555871,N,07348.246758,W,0.0,151.7,300816,0.0,E,A*16
$GPGSA,A,2,02,05,06,12,19,29,,,,,,,1.2,0.9,0.8*30
$GNGSA,A,2,02,05,06,12,19,29,,,,,,,1.2,0.9,0.8*2E
$GNGSA,A,2,66,67,68,81,82,,,,,,,,1.2,0.9,0.8*23
$GPGSV,3,1,12,02,72,001,24,05,55,223,22,06,41,073,29,12,33,244,15*77
$GPGSV,3,2,12,19,27,136,17,29,16,313,15,09,22,053,,13,00,174,*72
$GPGSV,3,3,12,17,06,137,,20,03,230,,23,04,032,,25,26,289,*7B
$GLGSV,3,1,11,66,52,040,29,82,59,341,20,81,53,101,33,67,64,182,19*62
$GLGSV,3,2,11,68,11,202,15,74,01,358,,73,07,312,,80,,,*59
$GLGSV,3,3,11,65,00,029,,88,04,122,,83,09,313,*5B
$GPGGA,200407.0,4112.555870,N,07348.246755,W,1,06,0.9,172.7,M,-37.0,M,,*69
$GNGNS,200407.0,4112.555870,N,07348.246755,W,AA,11,0.9,172.7,-37.0,,*5B
$GPVTG,151.7,T,151.7,M,0.0,N,0.0,K,A*23
$GPRMC,200407.0,A,4112.555870,N,07348.246755,W,0.0,151.7,300816,0.0,E,A*1B
$GPGSA,A,2,02,05,06,12,19,29,,,,,,,1.2,0.9,0.8*30
$GNGSA,A,2,02,05,06,12,19,29,,,,,,,1.2,0.9,0.8*2E
$GNGSA,A,2,66,67,68,81,82,,,,,,,,1.2,0.9,0.8*23
$GPGSV,3,1,12,02,72,001,23,05,55,223,24,06,41,073,29,12,33,244,14*77
$GPGSV,3,2,12,19,27,136,17,29,16,313,15,09,22,053,,13,00,174,*72
$GPGSV,3,3,12,17,06,137,,20,03,230,,23,04,032,,25,26,289,*7B
$GLGSV,3,1,11,66,52,040,29,82,59,341,20,81,53,101,33,67,64,182,20*68
$GLGSV,3,2,11,68,11,202,15,74,01,358,,73,07,312,,80,,,*59
$GLGSV,3,3,11,65,00,029,,88,04,122,,83,09,313,*5B
$GPGGA,200408.0,4112.555874,N,07348.246755,W,1,06,0.9,172.7,M,-37.0,M,,*62
$GNGNS,200408.0,4112.555874,N,07348.246755,W,AA,11,0.9,172.7,-37.0,,*50
$GPVTG,151.7,T,151.7,M,0.0,N,0.0,K,A*23
$GPRMC,200408.0,A,4112.555874,N,07348.246755,W,0.0,151.7,300816,0.0,E,A*10
$GPGSA,A,2,02,05,06,12,19,29,,,,,,,1.2,0.9,0.8*30
$GNGSA,A,2,02,05,06,12,19,29,,,,,,,1.2,0.9,0.8*2E
$GNGSA,A,2,66,67,68,81,82,,,,,,,,1.2,0.9,0.8*23
$GPGSV,3,1,12,02,72,001,21,05,55,223,24,06,41,073,31,12,33,244,17*7F
$GPGSV,3,2,12,19,27,136,16,29,16,313,15,09,22,053,,13,00,174,*73
$GPGSV,3,3,12,17,06,137,,20,03,230,,23,04,032,,25,26,289,*7B
$GLGSV,3,1,11,66,52,040,30,82,59,341,21,81,53,101,34,67,64,182,22*64
$GLGSV,3,2,11,68,11,202,16,74,01,358,,73,07,312,,80,,,*5A
$GLGSV,3,3,11,65,00,029,,88,04,122,,83,09,313,*5B
$GPGGA,200409.0,4112.555875,N,07348.246754,W,1,06,0.9,172.7,M,-37.0,M,,*63
$GNGNS,200409.0,4112.555875,N,07348.246754,W,AA,11,0.9,172.7,-37.0,,*51
$GPVTG,151.7,T,151.7,M,0.0,N,0.0,K,A*23
$GPRMC,200409.0,A,4112.555875,N,07348.246754,W,0.0,151.7,300816,0.0,E,A*11
$GPGSA,A,2,02,05,06,12,19,29,,,,,,,1.2,0.9,0.8*30
$GNGSA,A,2,02,05,06,12,19,29,,,,,,,1.2,0.9,0.8*2E
$GNGSA,A,2,66,67,68,81,82,,,,,,,,1.2,0.9,0.8*23
$GPGSV,3,1,12,02,72,001,19,05,55,223,24,06,41,073,29,12,33,244,17*7D
$GPGSV,3,2,12,19,27,136,21,29,16,313,15,09,22,053,,13,00,174,*77
$GPGSV,3,3,12,17,06,137,,20,03,230,,23,04,032,,25,26,289,*7B
$GLGSV,3,1,11,66,52,040,30,82,59,341,22,81,53,101,34,67,64,182,22*67
$GLGSV,3,2,11,68,11,202,18,74,01,358,,73,07,312,,80,,,*54
$GLGSV,3,3,11,65,00,029,,88,04,122,,83,09,313,*5B
$GPGGA,200410.0,4112.555874,N,07348.246753,W,1,06,0.9,172.8,M,-37.0,M,,*62
$GNGNS,200410.0,4112.555874,N,07348.246753,W,AA,11,0.9,172.8,-37.0,,*50
$GPVTG,151.7,T,151.7,M,0.0,N,0.0,K,A*23
$GPRMC,200410.0,A,4112.555874,N,07348.246753,W,0.0,151.7,300816,0.0,E,A*1F
$GPGSA,A,2,02,05,06,12,19,29,,,,,,,1.2,0.9,0.8*30
$GNGSA,A,2,02,05,06,12,19,29,,,,,,,1.2,0.9,0.8*2E
$GNGSA,A,2,66,67,68,81,82,,,,,,,,1.2,0.9,0.8*23
$GPGSV,3,1,12,02,72,001,25,05,55,223,23,06,41,073,28,12,33,244,20*70
$GPGSV,3,2,12,19,27,136,22,29,16,313,15,09,22,053,,13,00,174,*74
$GPGSV,3,3,12,17,06,137,,20,03,230,,23,04,032,,25,26,289,*7B
$GLGSV,3,1,11,66,52,040,29,82,59,341,22,81,53,101,29,67,64,182,24*65
$GLGSV,3,2,11,68,11,202,18,74,01,358,,73,07,312,,80,,,*54
$GLGSV,3,3,11,65,00,029,,88,04,122,,83,09,313,*5B
$GPGGA,200411.0,4112.555874,N,07348.246752,W,1,06,0.9,172.7,M,-37.0,M,,*6D
$GNGNS,200411.0,4112.555874,N,07348.246752,W,AA,11,0.9,172.7,-37.0,,*5F
$GPVTG,151.7,T,151.7,M,0.0,N,0.0,K,A*23
$GPRMC,200411.0,A,4112.555874,N,07348.246752,W,0.0,151.7,300816,0.0,E,A*1F
$GPGSA,A,2,02,05,06,12,19,29,,,,,,,1.2,0.9,0.8*30
$GNGSA,A,2,02,05,06,12,19,29,,,,,,,1.2,0.9,0.8*2E
$GNGSA,A,2,66,67,68,81,82,,,,,,,,1.2,0.9,0.8*23
$GPGSV,3,1,12,02,72,001,24,05,55,223,26,06,41,073,26,12,33,244,23*79
$GPGSV,3,2,12,19,27,136,24,29,16,313,15,09,22,053,,13,00,174,*72
$GPGSV,3,3,12,17,06,137,,20,03,230,,23,04,032,,25,26,289,*7B
$GLGSV,3,1,11,66,52,040,28,82,59,341,19,81,53,101,26,67,64,182,23*64
$GLGSV,3,2,11,68,11,202,19,74,01,358,,73,07,312,,80,,,*55
$GLGSV,3,3,11,65,00,029,,88,04,122,,83,09,313,*5B
$GPGGA,200412.0,4112.555874,N,07348.246751,W,1,06,0.9,172.7,M,-37.0,M,,*6D
$GNGNS,200412.0,4112.555874,N,07348.246751,W,AA,11,0.9,172.7,-37.0,,*5F
$GPVTG,151.7,T,151.7,M,0.0,N,0.0,K,A*23
$GPRMC,200412.0,A,4112.555874,N,07348.246751,W,0.0,151.7,300816,0.0,E,A*1F
$GPGSA,A,2,02,05,06,12,19,29,,,,,,,1.2,0.9,0.8*30
$GNGSA,A,2,02,05,06,12,19,29,,,,,,,1.2,0.9,0.8*2E
$GNGSA,A,2,66,67,68,81,82,,,,,,,,1.2,0.9,0.8*23
$GPGSV,3,1,12,02,72,001,24,05,55,223,27,06,41,073,28,12,33,244,25*70
$GPGSV,3,2,12,19,27,136,23,29,16,313,15,09,22,053,,13,00,174,*75
$GPGSV,3,3,12,17,06,137,,20,03,230,,23,04,032,,25,26,289,*7B
$GLGSV,3,1,11,66,52,040,27,82,59,341,20,81,53,101,24,67,64,182,22*62
$GLGSV,3,2,11,68,11,202,23,74,01,358,,73,07,312,,80,,,*5C
$GLGSV,3,3,11,65,00,029,,88,04,122,,83,09,313,*5B
$GPGGA,200413.0,4112.555875,N,07348.246752,W,1,06,0.9,172.7,M,-37.0,M,,*6E
$GNGNS,200413.0,4112.555875,N,07348.246752,W,AA,11,0.9,172.7,-37.0,,*5C
$GPVTG,151.7,T,151.7,M,0.0,N,0.0,K,A*23
$GPRMC,200413.0,A,4112.555875,N,07348.246752,W,0.0,151.7,300816,0.0,E,A*1C
$GPGSA,A,2,02,05,06,12,19,29,,,,,,,1.2,0.9,0.8*30
$GNGSA,A,2,02,05,06,12,19,29,,,,,,,1.2,0.9,0.8*2E
$GNGSA,A,2,66,67,68,81,82,,,,,,,,1.2,0.9,0.8*23
$GPGSV,3,1,12,02,72,001,23,05,55,223,26,06,41,073,25,12,33,244,24*7A
$GPGSV,3,2,12,19,27,136,23,25,26,289,12,29,16,313,15,09,22,053,*76
$GPGSV,3,3,12,13,00,174,,17,06,137,,20,03,230,,23,04,032,*7B
$GLGSV,3,1,11,66,52,040,27,82,59,341,21,81,53,101,25,67,64,182,21*61
$GLGSV,3,2,11,68,11,202,23,74,01,358,,73,07,312,,80,,,*5C
$GLGSV,3,3,11,65,00,029,,88,04,122,,83,09,313,*5B
$GPGGA,200414.0,4112.555875,N,07348.246753,W,1,06,0.9,172.7,M,-37.0,M,,*68
$GNGNS,200414.0,4112.555875,N,07348.246753,W,AA,11,0.9,172.7,-37.0,,*5A
$GPVTG,151.7,T,151.7,M,0.0,N,0.0,K,A*23
$GPRMC,200414.0,A,4112.555875,N,07348.246753,W,0.0,151.7,300816,0.0,E,A*1A
$GPGSA,A,2,02,05,06,12,19,25,,,,,,,1.3,0.9,0.9*3C
$GNGSA,A,2,02,05,06,12,19,25,,,,,,,1.3,0.9,0.9*22
$GNGSA,A,2,66,67,68,81,82,,,,,,,,1.3,0.9,0.9*23
$GPGSV,3,1,12,02,72,001,23,05,55,223,28,06,41,073,26,12,33,244,25*76
$GPGSV,3,2,12,19,27,136,22,25,26,289,12,29,16,313,15,09,22,053,*77
$GPGSV,3,3,12,13,00,174,,17,06,137,,20,03,230,,23,04,032,*7B
$GLGSV,3,1,11,66,52,040,28,82,59,341,21,81,53,101,25,67,64,182,21*6E
$GLGSV,3,2,11,68,11,202,23,74,01,358,,73,07,312,,80,,,*5C
$GLGSV,3,3,11,65,00,029,,88,04,122,,83,09,313,*5B
$GPGGA,200415.0,4112.555876,N,07348.246754,W,1,06,0.9,172.7,M,-37.0,M,,*6D
$GNGNS,200415.0,4112.555876,N,07348.246754,W,AA,11,0.9,172.7,-37.0,,*5F
$GPVTG,151.7,T,151.7,M,0.0,N,0.0,K,A*23
$GPRMC,200415.0,A,4112.555876,N,07348.246754,W,0.0,151.7,300816,0.0,E,A*1F
