$GPGSV,3,1,12,02,72,001,15,05,55,223,22,06,41,073,22,19,27,136,13*70
$GPGSV,3,2,12,09,22,053,,12,33,244,,13,00,174,,17,06,137,*70
$GPGSV,3,3,12,20,03,230,,23,04,032,,25,26,289,,29,16,313,*73
$GLGSV,3,1,11,66,53,040,27,81,53,099,23,67,63,182,13,74,01,358,*6F
$GLGSV,3,2,11,73,07,312,,82,59,343,,80,,,,65,,,*6E
$GLGSV,3,3,11,88,04,122,,83,09,313,,68,11,202,*5D
$GPGGA,200300.0,4112.556876,N,07348.245603,W,1,04,1.7,168.5,M,-37.0,M,,*69
$GNGNS,200300.0,4112.556876,N,07348.245603,W,AA,05,1.7,168.5,-37.0,,*5C
$GPVTG,148.1,T,148.1,M,0.0,N,0.0,K,A*23
$GPRMC,200300.0,A,4112.556876,N,07348.245603,W,0.0,148.1,300816,0.0,E,A*11
$GPGSA,A,2,02,05,06,19,,,,,,,,,2.0,1.7,1.0*3F
$GNGSA,A,2,02,05,06,19,,,,,,,,,2.0,1.7,1.0*21
$GNGSA,A,2,81,,,,,,,,,,,,2.0,1.7,1.0*21
$GPGSV,3,1,12,02,72,001,15,05,55,223,20,06,41,073,21,19,27,136,13*71
$GPGSV,3,2,12,09,22,053,,12,33,244,,13,00,174,,17,06,137,*70
$GPGSV,3,3,12,20,03,230,,23,04,032,,25,26,289,,29,16,313,*73
$GLGSV,3,1,11,66,53,040,28,81,53,099,24,67,63,182,13,74,01,358,*67
$GLGSV,3,2,11,73,07,312,,82,59,343,,80,,,,65,,,*6E
$GLGSV,3,3,11,88,04,122,,83,09,313,,68,11,202,*5D
$GPGGA,200301.0,4112.556892,N,07348.245623,W,1,04,1.7,168.4,M,-37.0,M,,*61
$GNGNS,200301.0,4112.556892,N,07348.245623,W,AA,05,1.7,168.4,-37.0,,*54
$GPVTG,148.1,T,148.1,M,0.0,N,0.0,K,A*23
$GPRMC,200301.0,A,4112.556892,N,07348.245623,W,0.0,148.1,300816,0.0,E,A*18
$GPGSA,A,2,02,05,06,19,,,,,,,,,2.0,1.7,1.0*3F
$GNGSA,A,2,02,05,06,19,,,,,,,,,2.0,1.7,1.0*21
$GNGSA,A,2,81,,,,,,,,,,,,2.0,1.7,1.0*21
$GPGSV,3,1,12,02,72,001,15,05,55,223,20,06,41,073,22,19,27,136,13*72
$GPGSV,3,2,12,09,22,053,,12,33,244,,13,00,174,,17,06,137,*70
$GPGSV,3,3,12,20,03,230,,23,04,032,,25,26,289,,29,16,313,*73
$GLGSV,3,1,11,66,53,040,27,81,53,099,23,67,63,182,13,74,01,358,*6F
$GLGSV,3,2,11,73,07,312,,82,59,343,,80,,,,65,,,*6E
$GLGSV,3,3,11,88,04,122,,83,09,313,,68,11,202,*5D
$GPGGA,200302.0,4112.556906,N,07348.245643,W,1,03,2.1,168.4,M,-37.0,M,,*6A
$GNGNS,200302.0,4112.556906,N,07348.245643,W,AA,04,2.1,168.4,-37.0,,*59
$GPVTG,148.1,T,148.1,M,0.0,N,0.0,K,A*23
$GPRMC,200302.0,A,4112.556906,N,07348.245643,W,0.0,148.1,300816,0.0,E,A*11
$GPGSA,A,2,05,06,19,,,,,,,,,,2.4,2.1,1.0*3C
$GNGSA,A,2,05,06,19,,,,,,,,,,2.4,2.1,1.0*22
$GNGSA,A,2,81,,,,,,,,,,,,2.4,2.1,1.0*20
$GPGSV,3,1,12,02,72,001,15,05,55,223,19,06,41,073,21,19,27,136,13*7B
$GPGSV,3,2,12,09,22,053,,12,33,244,,13,00,174,,17,06,137,*70
$GPGSV,3,3,12,20,03,230,,23,04,032,,25,26,289,,29,16,313,*73
$GLGSV,3,1,11,66,53,040,28,81,53,099,23,67,63,182,13,74,01,358,*60
$GLGSV,3,2,11,73,07,312,,82,59,343,,80,,,,65,,,*6E
$GLGSV,3,3,11,88,04,122,,83,09,313,,68,11,202,*5D
$GPGGA,200303.0,4112.556882,N,07348.245622,W,1,02,7.8,168.5,M,-37.0,M,,*6D
$GNGNS,200303.0,4112.556882,N,07348.245622,W,AA,03,7.8,168.5,-37.0,,*58
$GPVTG,148.1,T,148.1,M,0.0,N,0.0,K,A*23
$GPRMC,200303.0,A,4112.556882,N,07348.245622,W,0.0,148.1,300816,0.0,E,A*1A
$GPGSA,A,2,05,06,,,,,,,,,,,7.9,7.8,1.0*30
$GNGSA,A,2,05,06,,,,,,,,,,,7.9,7.8,1.0*2E
$GNGSA,A,2,81,,,,,,,,,,,,7.9,7.8,1.0*24
$GPGSV,3,1,12,02,72,001,15,05,55,223,19,06,41,073,22,19,27,136,13*78
$GPGSV,3,2,12,09,22,053,,12,33,244,,13,00,174,,17,06,137,*70
$GPGSV,3,3,12,20,03,230,,23,04,032,,25,26,289,,29,16,313,*73
$GLGSV,3,1,11,66,53,040,28,81,53,099,23,67,63,182,13,74,01,358,*60
$GLGSV,3,2,11,73,07,312,,82,59,343,,80,,,,65,,,*6E
$GLGSV,3,3,11,88,04,122,,83,09,313,,68,11,202,*5D
$GPGGA,200304.0,4112.556871,N,07348.245609,W,1,02,7.8,168.5,M,-37.0,M,,*6F
$GNGNS,200304.0,4112.556871,N,07348.245609,W,AA,03,7.8,168.5,-37.0,,*5A
$GPVTG,148.1,T,148.1,M,0.0,N,0.0,K,A*23
$GPRMC,200304.0,A,4112.556871,N,07348.245609,W,0.0,148.1,300816,0.0,E,A*18
$GPGSA,A,2,05,06,,,,,,,,,,,7.9,7.8,1.0*30
$GNGSA,A,2,05,06,,,,,,,,,,,7.9,7.8,1.0*2E
$GNGSA,A,2,81,,,,,,,,,,,,7.9,7.8,1.0*24
$GPGSV,3,1,12,02,72,001,15,05,55,223,20,06,41,073,22,19,27,136,13*72
$GPGSV,3,2,12,09,22,053,,12,33,244,,13,00,174,,17,06,137,*70
$GPGSV,3,3,12,20,03,230,,23,04,032,,25,26,289,,29,16,313,*73
$GLGSV,3,1,11,66,53,040,27,81,53,099,23,67,63,182,13,74,01,358,*6F
$GLGSV,3,2,11,73,07,312,,82,59,343,,80,,,,65,,,*6E
$GLGSV,3,3,11,88,04,122,,83,09,313,,68,11,202,*5D
$GPGGA,200305.0,4112.556875,N,07348.245614,W,1,02,7.8,168.5,M,-37.0,M,,*66
$GNGNS,200305.0,4112.556875,N,07348.245614,W,AA,03,7.8,168.5,-37.0,,*53
$GPVTG,148.1,T,148.1,M,0.0,N,0.0,K,A*23
$GPRMC,200305.0,A,4112.556875,N,07348.245614,W,0.0,148.1,300816,0.0,E,A*11
$GPGSA,A,2,05,06,,,,,,,,,,,7.9,7.8,1.0*30
$GNGSA,A,2,05,06,,,,,,,,,,,7.9,7.8,1.0*2E
$GNGSA,A,2,81,,,,,,,,,,,,7.9,7.8,1.0*24
$GPGSV,3,1,12,02,72,001,15,05,55,223,20,06,41,073,22,19,27,136,13*72
$GPGSV,3,2,12,09,22,053,,12,33,244,,13,00,174,,17,06,137,*70
$GPGSV,3,3,12,20,03,230,,23,04,032,,25,26,289,,29,16,313,*73
$GLGSV,3,1,11,66,53,040,27,81,53,099,23,67,63,182,12,74,01,358,*6E
$GLGSV,3,2,11,73,07,312,,82,59,343,,80,,,,65,,,*6E
$GLGSV,3,3,11,88,04,122,,83,09,313,,68,11,202,*5D
$GPGGA,200306.0,4112.556865,N,07348.245596,W,1,02,7.8,168.5,M,-37.0,M,,*6D
$GNGNS,200306.0,4112.556865,N,07348.245596,W,AA,03,7.8,168.5,-37.0,,*58
$GPVTG,148.1,T,148.1,M,0.0,N,0.0,K,A*23
$GPRMC,200306.0,A,4112.556865,N,07348.245596,W,0.0,148.1,300816,0.0,E,A*1A
$GPGSA,A,2,05,06,,,,,,,,,,,7.9,7.8,1.0*30
$GNGSA,A,2,05,06,,,,,,,,,,,7.9,7.8,1.0*2E
$GNGSA,A,2,81,,,,,,,,,,,,7.9,7.8,1.0*24
$GPGSV,3,1,12,02,72,001,11,05,55,223,20,06,41,073,22,19,27,136,13*76
$GPGSV,3,2,12,09,22,053,,12,33,244,,13,00,174,,17,06,137,*70
$GPGSV,3,3,12,20,03,230,,23,04,032,,25,26,289,,29,16,313,*73
$GLGSV,3,1,11,66,53,040,27,81,53,099,24,67,63,182,12,74,01,358,*69
$GLGSV,3,2,11,73,07,312,,82,59,343,,80,,,,65,,,*6E
$GLGSV,3,3,11,88,04,122,,83,09,313,,68,11,202,*5D
$GPGGA,200307.0,4112.556867,N,07348.245598,W,1,03,2.7,168.5,M,-37.0,M,,*6B
$GNGNS,200307.0,4112.556867,N,07348.245598,W,AA,04,2.7,168.5,-37.0,,*58
$GPVTG,148.1,T,148.1,M,0.0,N,0.0,K,A*23
$GPRMC,200307.0,A,4112.556867,N,07348.245598,W,0.0,148.1,300816,0.0,E,A*17
$GPGSA,A,2,02,05,06,,,,,,,,,,2.9,2.7,1.0*3D
$GNGSA,A,2,02,05,06,,,,,,,,,,2.9,2.7,1.0*23
$GNGSA,A,2,81,,,,,,,,,,,,2.9,2.7,1.0*2B
$GPGSV,3,1,12,02,72,001,11,05,55,223,21,06,41,073,21,19,27,136,11*76
$GPGSV,3,2,12,09,22,053,,12,33,244,,13,00,174,,17,06,137,*70
$GPGSV,3,3,12,20,03,230,,23,04,032,,25,26,289,,29,16,313,*73
$GLGSV,3,1,11,66,53,040,28,81,53,099,24,67,63,182,12,74,01,358,*66
$GLGSV,3,2,11,73,07,312,,82,59,343,,80,,,,65,,,*6E
$GLGSV,3,3,11,88,04,122,,83,09,313,,68,11,202,*5D
$GPGGA,200308.0,4112.556906,N,07348.245648,W,1,04,1.7,168.3,M,-37.0,M,,*6E
$GNGNS,200308.0,4112.556906,N,07348.245648,W,AA,05,1.7,168.3,-37.0,,*5B
$GPVTG,148.1,T,148.1,M,0.0,N,0.0,K,A*23
$GPRMC,200308.0,A,4112.556906,N,07348.245648,W,0.0,148.1,300816,0.0,E,A*10
$GPGSA,A,2,02,05,06,19,,,,,,,,,2.0,1.7,1.0*3F
$GNGSA,A,2,02,05,06,19,,,,,,,,,2.0,1.7,1.0*21
$GNGSA,A,2,81,,,,,,,,,,,,2.0,1.7,1.0*21
$GPGSV,3,1,12,02,72,001,11,05,55,223,21,06,41,073,22,19,27,136,11*75
$GPGSV,3,2,12,09,22,053,,12,33,244,,13,00,174,,17,06,137,*70
$GPGSV,3,3,12,20,03,230,,23,04,032,,25,26,289,,29,16,313,*73
$GLGSV,3,1,11,66,53,040,27,81,53,099,23,67,63,182,12,74,01,358,*6E
$GLGSV,3,2,11,73,07,312,,82,59,343,,80,,,,65,,,*6E
$GLGSV,3,3,11,88,04,122,,83,09,313,,68,11,202,*5D
$GPGGA,200309.0,4112.556946,N,07348.245693,W,1,04,1.7,168.2,M,-37.0,M,,*6C
$GNGNS,200309.0,4112.556946,N,07348.245693,W,AA,05,1.7,168.2,-37.0,,*59
$GPVTG,148.1,T,148.1,M,0.0,N,0.0,K,A*23
$GPRMC,200309.0,A,4112.556946,N,07348.245693,W,0.0,148.1,300816,0.0,E,A*13
$GPGSA,A,2,02,05,06,19,,,,,,,,,2.0,1.7,1.0*3F
$GNGSA,A,2,02,05,06,19,,,,,,,,,2.0,1.7,1.0*21
$GNGSA,A,2,81,,,,,,,,,,,,2.0,1.7,1.0*21
$GPGSV,3,1,12,02,72,002,11,05,55,223,19,06,41,074,22,19,27,136,11*7A
$GPGSV,3,2,12,09,22,053,,12,33,244,,13,01,174,,17,06,137,*71
$GPGSV,3,3,12,20,03,230,,23,04,032,,25,26,288,,29,17,313,*73
$GLGSV,3,1,11,66,52,040,28,81,53,101,23,67,63,182,12,74,01,357,*6F
$GLGSV,3,2,11,73,07,312,,82,59,343,,80,,,,65,,,*6E
$GLGSV,3,3,11,88,04,122,,83,09,313,,68,11,202,*5D
$GPGGA,200310.0,4112.556911,N,07348.245649,W,1,04,1.7,168.3,M,-37.0,M,,*60
$GNGNS,200310.0,4112.556911,N,07348.245649,W,AA,05,1.7,168.3,-37.0,,*55
$GPVTG,148.1,T,148.1,M,0.0,N,0.0,K,A*23
$GPRMC,200310.0,A,4112.556911,N,07348.245649,W,0.0,148.1,300816,0.0,E,A*1E
$GPGSA,A,2,02,05,06,19,,,,,,,,,2.0,1.7,1.0*3F
$GNGSA,A,2,02,05,06,19,,,,,,,,,2.0,1.7,1.0*21
$GNGSA,A,2,81,,,,,,,,,,,,2.0,1.7,1.0*21
$GPGSV,3,1,12,02,72,002,11,05,55,223,21,06,41,074,22,19,27,136,11*71
$GPGSV,3,2,12,09,22,053,,12,33,244,,13,01,174,,17,06,137,*71
$GPGSV,3,3,12,20,03,230,,23,04,032,,25,26,288,,29,17,313,*73
$GLGSV,3,1,11,66,52,040,27,81,53,101,23,67,63,182,12,74,01,357,*60
$GLGSV,3,2,11,73,07,312,,82,59,343,,80,,,,65,,,*6E
$GLGSV,3,3,11,88,04,122,,83,09,313,,68,11,202,*5D
$GPGGA,200311.0,4112.556906,N,07348.245640,W,1,04,1.7,168.3,M,-37.0,M,,*6E
$GNGNS,200311.0,4112.556906,N,07348.245640,W,AA,05,1.7,168.3,-37.0,,*5B
$GPVTG,148.1,T,148.1,M,0.0,N,0.0,K,A*23
$GPRMC,200311.0,A,4112.556906,N,07348.245640,W,0.0,148.1,300816,0.0,E,A*10
$GPGSA,A,2,02,05,06,19,,,,,,,,,2.0,1.7,1.0*3F
$GNGSA,A,2,02,05,06,19,,,,,,,,,2.0,1.7,1.0*21
$GNGSA,A,2,81,,,,,,,,,,,,2.0,1.7,1.0*21
$GPGSV,3,1,12,02,72,002,11,05,55,223,19,06,41,074,24,19,27,136,11*7C
$GPGSV,3,2,12,09,22,053,,12,33,244,,13,01,174,,17,06,137,*71
$GPGSV,3,3,12,20,03,230,,23,04,032,,25,26,288,,29,17,313,*73
$GLGSV,3,1,11,66,52,040,26,81,53,101,25,67,63,182,12,74,01,357,*67
$GLGSV,3,2,11,73,07,312,,82,59,343,,80,,,,65,,,*6E
$GLGSV,3,3,11,88,04,122,,83,09,313,,68,11,202,*5D
$GPGGA,200312.0,4112.556922,N,07348.245649,W,1,04,1.7,168.2,M,-37.0,M,,*63
$GNGNS,200312.0,4112.556922,N,07348.245649,W,AA,05,1.7,168.2,-37.0,,*56
$GPVTG,148.1,T,148.1,M,0.0,N,0.0,K,A*23
$GPRMC,200312.0,A,4112.556922,N,07348.245649,W,0.0,148.1,300816,0.0,E,A*1C
$GPGSA,A,2,02,05,06,19,,,,,,,,,2.0,1.7,1.0*3F
$GNGSA,A,2,02,05,06,19,,,,,,,,,2.0,1.7,1.0*21
$GNGSA,A,2,81,,,,,,,,,,,,2.0,1.7,1.0*21
$GPGSV,3,1,12,02,72,002,11,05,55,223,20,06,41,074,24,19,27,136,11*76
$GPGSV,3,2,12,09,22,053,,12,33,244,,13,01,174,,17,06,137,*71
$GPGSV,3,3,12,20,03,230,,23,04,032,,25,26,288,,29,17,313,*73
$GLGSV,3,1,11,66,52,040,27,81,53,101,24,67,63,182,12,74,01,357,*67
$GLGSV,3,2,11,73,07,312,,82,59,343,,80,,,,65,,,*6E
$GLGSV,3,3,11,88,04,122,,83,09,313,,68,11,202,*5D
$GPGGA,200313.0,4112.556945,N,07348.245672,W,1,04,1.7,168.1,M,-37.0,M,,*68
$GNGNS,200313.0,4112.556945,N,07348.245672,W,AA,05,1.7,168.1,-37.0,,*5D
$GPVTG,148.1,T,148.1,M,0.0,N,0.0,K,A*23
$GPRMC,200313.0,A,4112.556945,N,07348.245672,W,0.0,148.1,300816,0.0,E,A*14
$GPGSA,A,2,02,05,06,19,,,,,,,,,2.0,1.7,1.0*3F
$GNGSA,A,2,02,05,06,19,,,,,,,,,2.0,1.7,1.0*21
$GNGSA,A,2,81,,,,,,,,,,,,2.0,1.7,1.0*21
$GPGSV,3,1,12,02,72,002,11,05,55,223,21,06,41,074,24,19,27,136,11*77
$GPGSV,3,2,12,09,22,053,,12,33,244,,13,01,174,,17,06,137,*71
$GPGSV,3,3,12,20,03,230,,23,04,032,,25,26,288,,29,17,313,*73
$GLGSV,3,1,11,66,52,040,27,81,53,101,25,67,63,182,12,74,01,357,*66
$GLGSV,3,2,11,73,07,312,,82,59,343,,80,,,,65,,,*6E
$GLGSV,3,3,11,88,04,122,,83,09,313,,68,11,202,*5D
$GPGGA,200314.0,4112.556959,N,07348.245684,W,1,03,2.1,168.1,M,-37.0,M,,*69
$GNGNS,200314.0,4112.556959,N,07348.245684,W,AA,04,2.1,168.1,-37.0,,*5A
$GPVTG,148.1,T,148.1,M,0.0,N,0.0,K,A*23
$GPRMC,200314.0,A,4112.556959,N,07348.245684,W,0.0,148.1,300816,0.0,E,A*17
$GPGSA,A,2,05,06,19,,,,,,,,,,2.4,2.1,1.0*3C
$GNGSA,A,2,05,06,19,,,,,,,,,,2.4,2.1,1.0*22
$GNGSA,A,2,81,,,,,,,,,,,,2.4,2.1,1.0*20
$GPGSV,3,1,12,02,72,002,13,05,55,223,19,06,41,074,23,19,27,136,11*79
$GPGSV,3,2,12,09,22,053,,12,33,244,,13,01,174,,17,06,137,*71
$GPGSV,3,3,12,20,03,230,,23,04,032,,25,26,288,,29,17,313,*73
$GLGSV,3,1,11,66,52,040,26,81,53,101,24,67,63,182,12,74,01,357,*66
$GLGSV,3,2,11,73,07,312,,82,59,343,,80,,,,65,,,*6E
$GLGSV,3,3,11,88,04,122,,83,09,313,,68,11,202,*5D
$GPGGA,200315.0,4112.556973,N,07348.245693,W,1,03,2.7,168.0,M,-37.0,M,,*61
$GNGNS,200315.0,4112.556973,N,07348.245693,W,AA,04,2.7,168.0,-37.0,,*52
$GPVTG,148.1,T,148.1,M,0.0,N,0.0,K,A*23
$GPRMC,200315.0,A,4112.556973,N,07348.245693,W,0.0,148.1,300816,0.0,E,A*18
$GPGSA,A,2,02,05,06,,,,,,,,,,2.9,2.7,1.0*3D
$GNGSA,A,2,02,05,06,,,,,,,,,,2.9,2.7,1.0*23
$GNGSA,A,2,81,,,,,,,,,,,,2.9,2.7,1.0*2B
$GPGSV,3,1,12,02,72,002,13,05,55,223,19,06,41,074,21,19,27,136,11*7B
$GPGSV,3,2,12,09,22,053,,12,33,244,,13,01,174,,17,06,137,*71
$GPGSV,3,3,12,20,03,230,,23,04,032,,25,26,288,,29,17,313,*73
$GLGSV,3,1,11,66,52,040,26,81,53,101,24,67,63,182,13,74,01,357,*67
$GLGSV,3,2,11,73,07,312,,82,59,343,,80,,,,65,,,*6E
$GLGSV,3,3,11,88,04,122,,83,09,313,,68,11,202,*5D
$GPGGA,200316.0,4112.556984,N,07348.245709,W,1,03,2.7,168.0,M,-37.0,M,,*68
$GNGNS,200316.0,4112.556984,N,07348.245709,W,AA,04,2.7,168.0,-37.0,,*5B
$GPVTG,148.1,T,148.1,M,0.0,N,0.0,K,A*23
$GPRMC,200316.0,A,4112.556984,N,07348.245709,W,0.0,148.1,300816,0.0,E,A*11
$GPGSA,A,2,02,05,06,,,,,,,,,,2.9,2.7,1.0*3D
$GNGSA,A,2,02,05,06,,,,,,,,,,2.9,2.7,1.0*23
$GNGSA,A,2,81,,,,,,,,,,,,2.9,2.7,1.0*2B
$GPGSV,3,1,12,02,72,002,13,05,55,223,19,06,41,074,22,19,27,136,11*78
$GPGSV,3,2,12,09,22,053,,12,33,244,,13,01,174,,17,06,137,*71
$GPGSV,3,3,12,20,03,230,,23,04,032,,25,26,288,,29,17,313,*73
$GLGSV,3,1,11,66,52,040,24,81,53,101,25,67,63,182,13,74,01,357,*64
$GLGSV,3,2,11,73,07,312,,82,59,343,,80,,,,65,,,*6E
$GLGSV,3,3,11,88,04,122,,83,09,313,,68,11,202,*5D
$GPGGA,200317.0,4112.556989,N,07348.245713,W,1,03,2.7,168.0,M,-37.0,M,,*6F
$GNGNS,200317.0,4112.556989,N,07348.245713,W,AA,04,2.7,168.0,-37.0,,*5C
$GPVTG,148.1,T,148.1,M,0.0,N,0.0,K,A*23
$GPRMC,200317.0,A,4112.556989,N,07348.245713,W,0.0,148.1,300816,0.0,E,A*16
$GPGSA,A,2,02,05,06,,,,,,,,,,2.9,2.7,1.0*3D
$GNGSA,A,2,02,05,06,,,,,,,,,,2.9,2.7,1.0*23
$GNGSA,A,2,81,,,,,,,,,,,,2.9,2.7,1.0*2B
$GPGSV,3,1,12,02,72,002,13,05,55,223,19,06,41,074,22,19,27,136,11*78
$GPGSV,3,2,12,09,22,053,,12,33,244,,13,01,174,,17,06,137,*71
$GPGSV,3,3,12,20,03,230,,23,04,032,,25,26,288,,29,17,313,*73
$GLGSV,3,1,11,66,52,040,22,81,53,101,19,67,63,182,13,74,01,357,*6D
$GLGSV,3,2,11,73,07,312,,82,59,343,,80,,,,65,,,*6E
$GLGSV,3,3,11,88,04,122,,83,09,313,,68,11,202,*5D
$GPGGA,200318.0,4112.556983,N,07348.245715,W,1,03,2.7,168.0,M,-37.0,M,,*6C
$GNGNS,200318.0,4112.556983,N,07348.245715,W,AA,04,2.7,168.0,-37.0,,*5F
$GPVTG,148.1,T,148.1,M,0.0,N,0.0,K,A*23
$GPRMC,200318.0,A,4112.556983,N,07348.245715,W,0.0,148.1,300816,0.0,E,A*15
$GPGSA,A,2,02,05,06,,,,,,,,,,2.9,2.7,1.0*3D
$GNGSA,A,2,02,05,06,,,,,,,,,,2.9,2.7,1.0*23
$GNGSA,A,2,81,,,,,,,,,,,,2.9,2.7,1.0*2B
$GPGSV,3,1,12,02,72,002,14,05,55,223,20,06,41,074,17,19,27,136,11*73
$GPGSV,3,2,12,09,22,053,,12,33,244,,13,01,174,,17,06,137,*71
$GPGSV,3,3,12,20,03,230,,23,04,032,,25,26,288,,29,17,313,*73
$GLGSV,3,1,11,66,52,040,24,81,53,101,19,67,63,182,13,74,01,357,*6B
$GLGSV,3,2,11,73,07,312,,82,59,343,,80,,,,65,,,*6E
$GLGSV,3,3,11,88,04,122,,83,09,313,,68,11,202,*5D
$GPGGA,200319.0,4112.556996,N,07348.245730,W,1,03,2.7,168.0,M,-37.0,M,,*6E
$GNGNS,200319.0,4112.556996,N,07348.245730,W,AA,04,2.7,168.0,-37.0,,*5D
$GPVTG,148.1,T,148.1,M,0.0,N,0.0,K,A*23
$GPRMC,200319.0,A,4112.556996,N,07348.245730,W,0.0,148.1,300816,0.0,E,A*17
$GPGSA,A,2,02,05,06,,,,,,,,,,2.9,2.7,1.0*3D
$GNGSA,A,2,02,05,06,,,,,,,,,,2.9,2.7,1.0*23
$GNGSA,A,2,81,,,,,,,,,,,,2.9,2.7,1.0*2B
$GPGSV,3,1,12,02,72,002,14,05,55,223,22,06,41,074,17,19,27,136,11*71
$GPGSV,3,2,12,09,22,053,,12,33,244,,13,01,174,,17,06,137,*71
$GPGSV,3,3,12,20,03,230,,23,04,032,,25,26,288,,29,17,313,*73
$GLGSV,3,1,11,66,52,040,22,81,53,101,19,67,63,182,13,74,01,357,*6D
$GLGSV,3,2,11,73,07,312,,82,59,343,,80,,,,65,,,*6E
$GLGSV,3,3,11,88,04,122,,83,09,313,,68,11,202,*5D
$GPGGA,200320.0,4112.557013,N,07348.245767,W,1,03,2.7,167.9,M,-37.0,M,,*65
$GNGNS,200320.0,4112.557013,N,07348.245767,W,AA,04,2.7,167.9,-37.0,,*56
$GPVTG,148.1,T,148.1,M,0.0,N,0.0,K,A*23
$GPRMC,200320.0,A,4112.557013,N,07348.245767,W,0.0,148.1,300816,0.0,E,A*1A
$GPGSA,A,2,02,05,06,,,,,,,,,,2.9,2.7,1.0*3D
$GNGSA,A,2,02,05,06,,,,,,,,,,2.9,2.7,1.0*23
$GNGSA,A,2,81,,,,,,,,,,,,2.9,2.7,1.0*2B
$GPGSV,3,1,12,02,72,002,14,05,55,223,22,06,41,074,16,19,27,136,11*70
$GPGSV,3,2,12,09,22,053,,12,33,244,,13,01,174,,17,06,137,*71
$GPGSV,3,3,12,20,03,230,,23,04,032,,25,26,288,,29,17,313,*73
$GLGSV,3,1,11,66,52,040,19,81,53,101,19,67,63,182,13,74,01,357,*65
$GLGSV,3,2,11,73,07,312,,82,59,343,,80,,,,65,,,*6E
$GLGSV,3,3,11,88,04,122,,83,09,313,,68,11,202,*5D
$GPGGA,200321.0,4112.557012,N,07348.245769,W,1,03,2.7,168.0,M,-37.0,M,,*6D
$GNGNS,200321.0,4112.557012,N,07348.245769,W,AA,04,2.7,168.0,-37.0,,*5E
$GPVTG,148.1,T,148.1,M,0.0,N,0.0,K,A*23
$GPRMC,200321.0,A,4112.557012,N,07348.245769,W,0.0,148.1,300816,0.0,E,A*14
$GPGSA,A,2,02,05,06,,,,,,,,,,2.9,2.7,1.0*3D
$GNGSA,A,2,02,05,06,,,,,,,,,,2.9,2.7,1.0*23
$GNGSA,A,2,81,,,,,,,,,,,,2.9,2.7,1.0*2B
$GPGSV,3,1,12,02,72,002,14,05,55,223,22,06,41,074,16,19,27,136,11*70
$GPGSV,3,2,12,09,22,053,,12,33,244,,13,01,174,,17,06,137,*71
$GPGSV,3,3,12,20,03,230,,23,04,032,,25,26,288,,29,17,313,*73
$GLGSV,3,1,11,66,52,040,19,81,53,101,19,67,63,182,13,74,01,357,*65
$GLGSV,3,2,11,73,07,312,,82,59,343,,80,,,,65,,,*6E
$GLGSV,3,3,11,88,04,122,,83,09,313,,68,11,202,*5D
$GPGGA,200322.0,4112.557017,N,07348.245781,W,1,03,2.7,167.9,M,-37.0,M,,*6B
$GNGNS,200322.0,4112.557017,N,07348.245781,W,AA,04,2.7,167.9,-37.0,,*58
$GPVTG,148.1,T,148.1,M,0.0,N,0.0,K,A*23
$GPRMC,200322.0,A,4112.557017,N,07348.245781,W,0.0,148.1,300816,0.0,E,A*14
$GPGSA,A,2,02,05,06,,,,,,,,,,2.9,2.7,1.0*3D
$GNGSA,A,2,02,05,06,,,,,,,,,,2.9,2.7,1.0*23
$GNGSA,A,2,81,,,,,,,,,,,,2.9,2.7,1.0*2B
$GPGSV,3,1,12,02,72,002,14,05,55,223,23,06,41,074,18,19,27,136,11*7F
$GPGSV,3,2,12,09,22,053,,12,33,244,,13,01,174,,17,06,137,*71
$GPGSV,3,3,12,20,03,230,,23,04,032,,25,26,288,,29,17,313,*73
$GLGSV,3,1,11,66,52,040,19,82,59,343,13,81,53,101,19,67,63,182,13*66
$GLGSV,3,2,11,74,01,357,,73,07,312,,80,,,,65,,,*6F
$GLGSV,3,3,11,88,04,122,,83,09,313,,68,11,202,*5D
$GPGGA,200323.0,4112.557027,N,07348.245801,W,1,03,2.7,167.9,M,-37.0,M,,*6E
$GNGNS,200323.0,4112.557027,N,07348.245801,W,AA,04,2.7,167.9,-37.0,,*5D
$GPVTG,148.1,T,148.1,M,0.0,N,0.0,K,A*23
$GPRMC,200323.0,A,4112.557027,N,07348.245801,W,0.0,148.1,300816,0.0,E,A*11
$GPGSA,A,2,02,05,06,,,,,,,,,,2.9,2.7,1.0*3D
$GNGSA,A,2,02,05,06,,,,,,,,,,2.9,2.7,1.0*23
$GNGSA,A,2,81,,,,,,,,,,,,2.9,2.7,1.0*2B
$GPGSV,3,1,12,02,72,002,14,05,55,223,22,06,41,074,18,19,27,136,11*7E
$GPGSV,3,2,12,09,22,053,,12,33,244,,13,01,174,,17,06,137,*71
$GPGSV,3,3,12,20,03,230,,23,04,032,,25,26,288,,29,17,313,*73
$GLGSV,3,1,11,66,52,040,21,82,59,343,13,81,53,101,16,67,63,182,13*62
$GLGSV,3,2,11,74,01,357,,73,07,312,,80,,,,65,,,*6F
$GLGSV,3,3,11,88,04,122,,83,09,313,,68,11,202,*5D
$GPGGA,200324.0,4112.557031,N,07348.245809,W,1,03,2.7,167.9,M,-37.0,M,,*66
$GNGNS,200324.0,4112.557031,N,07348.245809,W,AA,04,2.7,167.9,-37.0,,*55
$GPVTG,148.1,T,148.1,M,0.0,N,0.0,K,A*23
$GPRMC,200324.0,A,4112.557031,N,07348.245809,W,0.0,148.1,300816,0.0,E,A*19
$GPGSA,A,2,02,05,06,,,,,,,,,,2.9,2.7,1.0*3D
$GNGSA,A,2,02,05,06,,,,,,,,,,2.9,2.7,1.0*23
$GNGSA,A,2,81,,,,,,,,,,,,2.9,2.7,1.0*2B
$GPGSV,3,1,12,02,72,002,14,05,55,223,23,06,41,074,17,19,27,136,11*70
$GPGSV,3,2,12,09,22,053,,12,33,244,,13,01,174,,17,06,137,*71
$GPGSV,3,3,12,20,03,230,,23,04,032,,25,26,288,,29,17,313,*73
$GLGSV,3,1,11,66,52,040,22,82,59,343,12,81,53,101,16,67,63,182,13*60
$GLGSV,3,2,11,74,01,357,,73,07,312,,80,,,,65,,,*6F
$GLGSV,3,3,11,88,04,122,,83,09,313,,68,11,202,*5D
$GPGGA,200325.0,4112.557036,N,07348.245821,W,1,03,2.7,167.9,M,-37.0,M,,*6A
$GNGNS,200325.0,4112.557036,N,07348.245821,W,AA,04,2.7,167.9,-37.0,,*59
$GPVTG,148.1,T,148.1,M,0.0,N,0.0,K,A*23
$GPRMC,200325.0,A,4112.557036,N,07348.245821,W,0.0,148.1,300816,0.0,E,A*15
$GPGSA,A,2,02,05,06,,,,,,,,,,2.9,2.7,1.0*3D
$GNGSA,A,2,02,05,06,,,,,,,,,,2.9,2.7,1.0*23
$GNGSA,A,2,81,,,,,,,,,,,,2.9,2.7,1.0*2B
$GPGSV,3,1,12,02,72,002,14,05,55,223,22,06,41,074,18,19,27,136,11*7E
$GPGSV,3,2,12,09,22,053,,12,33,244,,13,01,174,,17,06,137,*71
$GPGSV,3,3,12,20,03,230,,23,04,032,,25,26,288,,29,17,313,*73
$GLGSV,3,1,11,66,52,040,20,82,59,343,12,81,53,101,16,67,63,182,13*62
$GLGSV,3,2,11,74,01,357,,73,07,312,,80,,,,65,,,*6F
$GLGSV,3,3,11,88,04,122,,83,09,313,,68,11,202,*5D
$GPGGA,200326.0,4112.557049,N,07348.245837,W,1,02,7.7,167.8,M,-37.0,M,,*63
$GNGNS,200326.0,4112.557049,N,07348.245837,W,AA,03,7.7,167.8,-37.0,,*56
$GPVTG,148.1,T,148.1,M,0.0,N,0.0,K,A*23
$GPRMC,200326.0,A,4112.557049,N,07348.245837,W,0.0,148.1,300816,0.0,E,A*19
$GPGSA,A,2,05,06,,,,,,,,,,,7.8,7.7,1.0*3E
$GNGSA,A,2,05,06,,,,,,,,,,,7.8,7.7,1.0*20
$GNGSA,A,2,81,,,,,,,,,,,,7.8,7.7,1.0*2A
$GPGSV,3,1,11,02,72,002,14,05,55,223,23,06,41,074,18,09,22,053,*7A
$GPGSV,3,2,11,12,33,244,,13,01,174,,17,06,137,,20,03,230,*7D
$GPGSV,3,3,11,23,04,032,,25,26,288,,29,17,313,*40
$GLGSV,3,1,11,66,52,040,22,82,59,343,12,81,53,101,18,67,63,182,13*6E
$GLGSV,3,2,11,74,01,357,,73,07,312,,80,,,,65,,,*6F
$GLGSV,3,3,11,88,04,122,,83,09,313,,68,11,202,*5D
$GPGGA,200327.0,,,,,0,,,,,,,,*7C
$GNGNS,200327.0,,,,,NN,,,,,,*49
$GPVTG,,T,,M,,N,,K,N*2C
$GPRMC,,V,,,,,,,,,,N*53
$GPGSA,A,1,,,,,,,,,,,,,,,*1E
$GNGSA,A,1,,,,,,,,,,,,,,,*00
$GPGSV,3,1,12,02,72,002,14,05,55,223,22,06,41,074,18,09,22,053,*78
$GPGSV,3,2,12,12,33,244,,13,01,174,,17,06,137,,19,27,136,*77
$GPGSV,3,3,12,20,03,230,,23,04,032,,25,26,288,,29,17,313,*73
$GLGSV,3,1,11,66,52,040,21,82,59,343,12,81,53,101,17,67,63,182,13*62
$GLGSV,3,2,11,74,01,357,,73,07,312,,80,,,,65,,,*6F
$GLGSV,3,3,11,88,04,122,,83,09,313,,68,11,202,*5D
$GPGGA,200328.0,,,,,0,,,,,,,,*73
$GNGNS,200328.0,,,,,NN,,,,,,*46
$GPVTG,,T,,M,,N,,K,N*2C
$GPRMC,,V,,,,,,,,,,N*53
$GPGSA,A,1,,,,,,,,,,,,,,,*1E
$GNGSA,A,1,,,,,,,,,,,,,,,*00
$GPGSV,3,1,12,02,72,002,14,05,55,223,23,06,41,074,16,09,22,053,*77
$GPGSV,3,2,12,12,33,244,,13,01,174,,17,06,137,,19,27,136,*77
$GPGSV,3,3,12,20,03,230,,23,04,032,,25,26,288,,29,17,313,*73
$GLGSV,3,1,11,66,52,040,22,82,59,343,12,81,53,101,17,67,63,182,13*61
$GLGSV,3,2,11,74,01,357,,73,07,312,,80,,,,65,,,*6F
$GLGSV,3,3,11,88,04,122,,83,09,313,,68,11,202,*5D
$GPGGA,200329.0,,,,,0,,,,,,,,*72
$GNGNS,200329.0,,,,,NN,,,,,,*47
$GPVTG,,T,,M,,N,,K,N*2C
$GPRMC,,V,,,,,,,,,,N*53
$GPGSA,A,1,,,,,,,,,,,,,,,*1E
$GNGSA,A,1,,,,,,,,,,,,,,,*00
$GPGSV,3,1,12,02,72,002,14,05,55,223,23,06,41,074,16,09,22,053,*77
$GPGSV,3,2,12,12,33,244,,13,01,174,,17,06,137,,19,27,136,*77
$GPGSV,3,3,12,20,03,230,,23,04,032,,25,26,288,,29,17,313,*73
$GLGSV,3,1,11,66,52,040,20,82,59,343,12,81,53,101,16,67,63,182,13*62
$GLGSV,3,2,11,74,01,357,,73,07,312,,80,,,,65,,,*6F
$GLGSV,3,3,11,88,04,122,,83,09,313,,68,11,202,*5D
$GPGGA,200330.0,,,,,0,,,,,,,,*7A
$GNGNS,200330.0,,,,,NN,,,,,,*4F
$GPVTG,,T,,M,,N,,K,N*2C
$GPRMC,,V,,,,,,,,,,N*53
$GPGSA,A,1,,,,,,,,,,,,,,,*1E
$GNGSA,A,1,,,,,,,,,,,,,,,*00
$GPGSV,3,1,12,02,72,002,14,05,55,223,23,06,41,074,18,09,22,053,*79
$GPGSV,3,2,12,12,33,244,,13,01,174,,17,06,137,,19,27,136,*77
$GPGSV,3,3,12,20,03,230,,23,04,032,,25,26,288,,29,17,313,*73
$GLGSV,3,1,11,66,52,040,18,82,59,343,12,81,53,101,16,67,63,182,13*69
$GLGSV,3,2,11,74,01,357,,73,07,312,,80,,,,65,,,*6F
$GLGSV,3,3,11,88,04,122,,83,09,313,,68,11,202,*5D
$GPGGA,200331.0,,,,,0,,,,,,,,*7B
$GNGNS,200331.0,,,,,NN,,,,,,*4E
$GPVTG,,T,,M,,N,,K,N*2C
$GPRMC,,V,,,,,,,,,,N*53
$GPGSA,A,1,,,,,,,,,,,,,,,*1E
$GNGSA,A,1,,,,,,,,,,,,,,,*00
$GPGSV,3,1,12,02,72,002,14,05,55,223,23,06,41,074,18,09,22,053,*79
$GPGSV,3,2,12,12,33,244,,13,01,174,,17,06,137,,19,27,136,*77
$GPGSV,3,3,12,20,03,230,,23,04,032,,25,26,288,,29,17,313,*73
$GLGSV,3,1,11,66,52,040,19,82,59,343,12,81,53,101,17,67,63,182,13*69
$GLGSV,3,2,11,74,01,357,,73,07,312,,80,,,,65,,,*6F
$GLGSV,3,3,11,88,04,122,,83,09,313,,68,11,202,*5D
$GPGGA,200332.0,,,,,0,,,,,,,,*78
$GNGNS,200332.0,,,,,NN,,,,,,*4D
$GPVTG,,T,,M,,N,,K,N*2C
$GPRMC,,V,,,,,,,,,,N*53
$GPGSA,A,1,,,,,,,,,,,,,,,*1E
$GNGSA,A,1,,,,,,,,,,,,,,,*00
$GPGSV,3,1,12,02,72,002,14,05,55,223,22,06,41,074,16,09,22,053,*76
$GPGSV,3,2,12,12,33,244,,13,01,174,,17,06,137,,19,27,136,*77
$GPGSV,3,3,12,20,03,230,,23,04,032,,25,26,288,,29,17,313,*73
$GLGSV,3,1,11,66,52,040,19,82,59,343,12,81,53,101,17,67,63,182,13*69
$GLGSV,3,2,11,74,01,357,,73,07,312,,80,,,,65,,,*6F
$GLGSV,3,3,11,88,04,122,,83,09,313,,68,11,202,*5D
$GPGGA,200333.0,,,,,0,,,,,,,,*79
$GNGNS,200333.0,,,,,NN,,,,,,*4C
$GPVTG,,T,,M,,N,,K,N*2C
$GPRMC,,V,,,,,,,,,,N*53
$GPGSA,A,1,,,,,,,,,,,,,,,*1E
$GNGSA,A,1,,,,,,,,,,,,,,,*00
$GPGSV,3,1,12,02,72,002,14,05,55,223,22,06,41,074,18,09,22,053,*78
$GPGSV,3,2,12,12,33,244,,13,01,174,,17,06,137,,19,27,136,*77
$GPGSV,3,3,12,20,03,230,,23,04,032,,25,26,288,,29,17,313,*73
$GLGSV,3,1,11,66,52,040,19,82,59,343,12,81,53,101,17,67,63,182,13*69
$GLGSV,3,2,11,74,01,357,,73,07,312,,80,,,,65,,,*6F
$GLGSV,3,3,11,88,04,122,,83,09,313,,68,11,202,*5D
$GPGGA,200334.0,,,,,0,,,,,,,,*7E
$GNGNS,200334.0,,,,,NN,,,,,,*4B
$GPVTG,,T,,M,,N,,K,N*2C
$GPRMC,,V,,,,,,,,,,N*53
$GPGSA,A,1,,,,,,,,,,,,,,,*1E
$GNGSA,A,1,,,,,,,,,,,,,,,*00
$GPGSV,3,1,12,02,72,002,14,05,55,223,22,06,41,074,18,09,22,053,*78
$GPGSV,3,2,12,12,33,244,,13,01,174,,17,06,137,,19,27,136,*77
$GPGSV,3,3,12,20,03,230,,23,04,032,,25,26,288,,29,17,313,*73
$GLGSV,3,1,11,66,52,040,19,82,59,343,14,81,53,101,18,67,63,182,13*60
$GLGSV,3,2,11,74,01,357,,73,07,312,,80,,,,65,,,*6F
$GLGSV,3,3,11,88,04,122,,83,09,313,,68,11,202,*5D
$GPGGA,200335.0,,,,,0,,,,,,,,*7F
$GNGNS,200335.0,,,,,NN,,,,,,*4A
$GPVTG,,T,,M,,N,,K,N*2C
$GPRMC,,V,,,,,,,,,,N*53
$GPGSA,A,1,,,,,,,,,,,,,,,*1E
$GNGSA,A,1,,,,,,,,,,,,,,,*00
$GPGSV,3,1,12,02,72,002,14,05,55,223,22,06,41,074,16,09,22,053,*76
$GPGSV,3,2,12,12,33,244,,13,01,174,,17,06,137,,19,27,136,*77
$GPGSV,3,3,12,20,03,230,,23,04,032,,25,26,288,,29,17,313,*73
$GLGSV,3,1,11,66,52,040,19,82,59,343,14,81,53,101,16,67,63,182,13*6E
$GLGSV,3,2,11,74,01,357,,73,07,312,,80,,,,65,,,*6F
$GLGSV,3,3,11,88,04,122,,83,09,313,,68,11,202,*5D
$GPGGA,200336.0,,,,,0,,,,,,,,*7C
$GNGNS,200336.0,,,,,NN,,,,,,*49
$GPVTG,,T,,M,,N,,K,N*2C
$GPRMC,,V,,,,,,,,,,N*53
$GPGSA,A,1,,,,,,,,,,,,,,,*1E
$GNGSA,A,1,,,,,,,,,,,,,,,*00
$GPGSV,3,1,12,02,72,002,14,05,55,223,23,06,41,074,16,09,22,053,*77
$GPGSV,3,2,12,12,33,244,,13,01,174,,17,06,137,,19,27,136,*77
$GPGSV,3,3,12,20,03,230,,23,04,032,,25,26,288,,29,17,313,*73
$GLGSV,3,1,11,66,52,040,19,82,59,343,14,81,53,101,18,67,63,182,13*60
$GLGSV,3,2,11,74,01,357,,73,07,312,,80,,,,65,,,*6F
$GLGSV,3,3,11,88,04,122,,83,09,313,,68,11,202,*5D
$GPGGA,200337.0,,,,,0,,,,,,,,*7D
$GNGNS,200337.0,,,,,NN,,,,,,*48
$GPVTG,,T,,M,,N,,K,N*2C
$GPRMC,,V,,,,,,,,,,N*53
$GPGSA,A,1,,,,,,,,,,,,,,,*1E
$GNGSA,A,1,,,,,,,,,,,,,,,*00
$GPGSV,3,1,12,02,72,002,14,05,55,223,21,06,41,074,15,09,22,053,*76
$GPGSV,3,2,12,12,33,244,,13,01,174,,17,06,137,,19,27,136,*77
$GPGSV,3,3,12,20,03,230,,23,04,032,,25,26,288,,29,17,313,*73
$GLGSV,3,1,11,66,52,040,22,82,59,343,14,81,53,101,20,67,63,182,13*63
$GLGSV,3,2,11,74,01,357,,73,07,312,,80,,,,65,,,*6F
$GLGSV,3,3,11,88,04,122,,83,09,313,,68,11,202,*5D
$GPGGA,200338.0,,,,,0,,,,,,,,*72
$GNGNS,200338.0,,,,,NN,,,,,,*47
$GPVTG,,T,,M,,N,,K,N*2C
$GPRMC,,V,,,,,,,,,,N*53
$GPGSA,A,1,,,,,,,,,,,,,,,*1E
$GNGSA,A,1,,,,,,,,,,,,,,,*00
$GPGSV,3,1,12,02,72,002,14,05,55,223,24,06,41,074,17,09,22,053,*71
$GPGSV,3,2,12,12,33,244,,13,01,174,,17,06,137,,19,27,136,*77
$GPGSV,3,3,12,20,03,230,,23,04,032,,25,26,288,,29,17,313,*73
$GLGSV,3,1,11,66,52,040,22,82,59,343,14,81,53,101,18,67,63,182,13*68
$GLGSV,3,2,11,74,01,357,,73,07,312,,80,,,,65,,,*6F
$GLGSV,3,3,11,88,04,122,,83,09,313,,68,11,202,*5D
$GPGGA,200339.0,,,,,0,,,,,,,,*73
$GNGNS,200339.0,,,,,NN,,,,,,*46
$GPVTG,,T,,M,,N,,K,N*2C
$GPRMC,,V,,,,,,,,,,N*53
$GPGSA,A,1,,,,,,,,,,,,,,,*1E
$GNGSA,A,1,,,,,,,,,,,,,,,*00
$GPGSV,3,1,12,02,72,002,14,05,55,223,22,06,41,074,18,19,27,136,12*7D
$GPGSV,3,2,12,09,22,053,,12,33,244,,13,01,174,,17,06,137,*71
$GPGSV,3,3,12,20,03,230,,23,04,032,,25,26,288,,29,17,313,*73
$GLGSV,3,1,10,66,52,040,21,82,59,343,14,81,53,101,19,74,01,357,*65
$GLGSV,3,2,10,73,07,312,,80,,,,65,,,,88,04,122,*68
$GLGSV,3,3,10,83,09,313,,68,11,202,*69
$GPGGA,200340.0,,,,,0,,,,,,,,*7D
$GNGNS,200340.0,,,,,NN,,,,,,*48
$GPVTG,,T,,M,,N,,K,N*2C
$GPRMC,,V,,,,,,,,,,N*53
$GPGSA,A,1,,,,,,,,,,,,,,,*1E
$GNGSA,A,1,,,,,,,,,,,,,,,*00
$GPGSV,3,1,12,02,72,002,14,05,55,223,23,06,41,074,18,19,27,136,12*7C
$GPGSV,3,2,12,09,22,053,,12,33,244,,13,01,174,,17,06,137,*71
$GPGSV,3,3,12,20,03,230,,23,04,032,,25,26,288,,29,17,313,*73
$GLGSV,3,1,11,66,52,040,24,82,59,343,14,81,53,101,18,74,01,357,*60
$GLGSV,3,2,11,73,07,312,,80,,,,65,,,,88,04,122,*69
$GLGSV,3,3,11,83,09,313,,67,63,182,,68,11,202,*57
$GPGGA,200341.0,,,,,0,,,,,,,,*7C
$GNGNS,200341.0,,,,,NN,,,,,,*49
$GPVTG,,T,,M,,N,,K,N*2C
$GPRMC,,V,,,,,,,,,,N*53
$GPGSA,A,1,,,,,,,,,,,,,,,*1E
$GNGSA,A,1,,,,,,,,,,,,,,,*00
$GPGSV,3,1,11,05,55,223,23,06,41,074,16,19,26,136,12,09,22,052,*7E
$GPGSV,3,2,11,12,33,244,,13,01,174,,17,06,137,,20,03,230,*7D
$GPGSV,3,3,11,23,04,032,,25,26,288,,29,17,313,*40
$GLGSV,3,1,11,66,52,040,22,82,60,343,14,81,53,101,18,74,01,357,*6C
$GLGSV,3,2,11,73,07,312,,80,,,,65,,,,88,04,123,*68
$GLGSV,3,3,11,83,09,313,,67,64,182,,68,11,202,*50
$GPGGA,200342.0,,,,,0,,,,,,,,*7F
$GNGNS,200342.0,,,,,NN,,,,,,*4A
$GPVTG,,T,,M,,N,,K,N*2C
$GPRMC,,V,,,,,,,,,,N*53
$GPGSA,A,1,,,,,,,,,,,,,,,*1E
$GNGSA,A,1,,,,,,,,,,,,,,,*00
$GPGSV,3,1,12,05,55,223,22,06,41,074,18,19,26,136,12,02,72,002,*79
$GPGSV,3,2,12,09,22,052,,12,33,244,,13,01,174,,17,06,137,*70
$GPGSV,3,3,12,20,03,230,,23,04,032,,25,26,288,,29,17,313,*73
$GLGSV,3,1,11,66,52,040,21,82,60,343,14,81,53,101,20,74,01,357,*64
$GLGSV,3,2,11,73,07,312,,80,,,,65,,,,88,04,123,*68
$GLGSV,3,3,11,83,09,313,,67,64,182,,68,11,202,*50
$GPGGA,200343.0,,,,,0,,,,,,,,*7E
$GNGNS,200343.0,,,,,NN,,,,,,*4B
$GPVTG,,T,,M,,N,,K,N*2C
$GPRMC,,V,,,,,,,,,,N*53
$GPGSA,A,1,,,,,,,,,,,,,,,*1E
$GNGSA,A,1,,,,,,,,,,,,,,,*00
$GPGSV,3,1,12,05,55,223,21,06,41,074,16,19,26,136,12,02,72,002,*74
$GPGSV,3,2,12,09,22,052,,12,33,244,,13,01,174,,17,06,137,*70
$GPGSV,3,3,12,20,03,230,,23,04,032,,25,26,288,,29,17,313,*73
$GLGSV,3,1,11,66,52,040,21,82,60,343,14,81,53,101,16,74,01,357,*61
$GLGSV,3,2,11,73,07,312,,80,,,,65,,,,88,04,123,*68
$GLGSV,3,3,11,83,09,313,,67,64,182,,68,11,202,*50
$GPGGA,200344.0,,,,,0,,,,,,,,*79
$GNGNS,200344.0,,,,,NN,,,,,,*4C
$GPVTG,,T,,M,,N,,K,N*2C
$GPRMC,,V,,,,,,,,,,N*53
$GPGSA,A,1,,,,,,,,,,,,,,,*1E
$GNGSA,A,1,,,,,,,,,,,,,,,*00
$GPGSV,3,1,12,05,55,223,22,06,41,074,17,19,26,136,12,02,72,002,*76
$GPGSV,3,2,12,09,22,052,,12,33,244,,13,01,174,,17,06,137,*70
$GPGSV,3,3,12,20,03,230,,23,04,032,,25,26,288,,29,17,313,*73
$GLGSV,3,1,11,66,52,040,20,82,60,343,14,81,53,101,20,74,01,357,*65
$GLGSV,3,2,11,73,07,312,,80,,,,65,,,,88,04,123,*68
$GLGSV,3,3,11,83,09,313,,67,64,182,,68,11,202,*50
$GPGGA,200345.0,,,,,0,,,,,,,,*78
$GNGNS,200345.0,,,,,NN,,,,,,*4D
$GPVTG,,T,,M,,N,,K,N*2C
$GPRMC,,V,,,,,,,,,,N*53
$GPGSA,A,1,,,,,,,,,,,,,,,*1E
$GNGSA,A,1,,,,,,,,,,,,,,,*00
$GPGSV,3,1,12,05,55,223,22,06,41,074,18,19,26,136,12,02,72,002,*79
$GPGSV,3,2,12,09,22,052,,12,33,244,,13,01,174,,17,06,137,*70
$GPGSV,3,3,12,20,03,230,,23,04,032,,25,26,288,,29,17,313,*73
$GLGSV,3,1,11,66,52,040,20,82,60,343,14,81,53,101,19,74,01,357,*6F
$GLGSV,3,2,11,73,07,312,,80,,,,65,,,,88,04,123,*68
$GLGSV,3,3,11,83,09,313,,67,64,182,,68,11,202,*50
$GPGGA,200346.0,,,,,0,,,,,,,,*7B
$GNGNS,200346.0,,,,,NN,,,,,,*4E
$GPVTG,,T,,M,,N,,K,N*2C
$GPRMC,,V,,,,,,,,,,N*53
$GPGSA,A,1,,,,,,,,,,,,,,,*1E
$GNGSA,A,1,,,,,,,,,,,,,,,*00
$GPGSV,3,1,12,05,55,223,23,06,41,074,17,19,26,136,12,02,72,002,*77
$GPGSV,3,2,12,09,22,052,,12,33,244,,13,01,174,,17,06,137,*70
$GPGSV,3,3,12,20,03,230,,23,04,032,,25,26,288,,29,17,313,*73
$GLGSV,3,1,11,66,52,040,20,82,60,343,14,81,53,101,20,74,01,357,*65
$GLGSV,3,2,11,73,07,312,,80,,,,65,,,,88,04,123,*68
$GLGSV,3,3,11,83,09,313,,67,64,182,,68,11,202,*50
$GPGGA,200347.0,,,,,0,,,,,,,,*7A
$GNGNS,200347.0,,,,,NN,,,,,,*4F
$GPVTG,,T,,M,,N,,K,N*2C
$GPRMC,,V,,,,,,,,,,N*53
$GPGSA,A,1,,,,,,,,,,,,,,,*1E
$GNGSA,A,1,,,,,,,,,,,,,,,*00
$GPGSV,3,1,12,05,55,223,21,06,41,074,19,19,26,136,12,02,72,002,*7B
$GPGSV,3,2,12,09,22,052,,12,33,244,,13,01,174,,17,06,137,*70
$GPGSV,3,3,12,20,03,230,,23,04,032,,25,26,288,,29,17,313,*73
$GLGSV,3,1,11,66,52,040,22,82,60,343,14,81,53,101,23,74,01,357,*64
$GLGSV,3,2,11,73,07,312,,80,,,,65,,,,88,04,123,*68
$GLGSV,3,3,11,83,09,313,,67,64,182,,68,11,202,*50
$GPGGA,200348.0,,,,,0,,,,,,,,*75
$GNGNS,200348.0,,,,,NN,,,,,,*40
$GPVTG,,T,,M,,N,,K,N*2C
$GPRMC,,V,,,,,,,,,,N*53
$GPGSA,A,1,,,,,,,,,,,,,,,*1E
$GNGSA,A,1,,,,,,,,,,,,,,,*00
$GPGSV,3,1,12,05,55,223,19,06,41,074,22,19,26,136,13,02,72,002,*79
$GPGSV,3,2,12,09,22,052,,12,33,244,,13,01,174,,17,06,137,*70
$GPGSV,3,3,12,20,03,230,,23,04,032,,25,26,288,,29,17,313,*73
$GLGSV,3,1,11,66,52,040,23,82,60,343,14,81,53,101,22,74,01,357,*64
$GLGSV,3,2,11,73,07,312,,80,,,,65,,,,88,04,123,*68
$GLGSV,3,3,11,83,09,313,,67,64,182,,68,11,202,*50
$GPGGA,200349.0,,,,,0,,,,,,,,*74
$GNGNS,200349.0,,,,,NN,,,,,,*41
$GPVTG,,T,,M,,N,,K,N*2C
$GPRMC,,V,,,,,,,,,,N*53
$GPGSA,A,1,,,,,,,,,,,,,,,*1E
$GNGSA,A,1,,,,,,,,,,,,,,,*00
$GPGSV,3,1,12,05,55,223,20,06,41,074,19,19,26,136,18,02,72,002,*70
$GPGSV,3,2,12,09,22,052,,12,33,244,,13,01,174,,17,06,137,*70
$GPGSV,3,3,12,20,03,230,,23,04,032,,25,26,288,,29,17,313,*73
$GLGSV,3,1,11,66,52,040,26,82,60,343,14,81,53,101,23,74,01,357,*60
$GLGSV,3,2,11,73,07,312,,80,,,,65,,,,88,04,123,*68
$GLGSV,3,3,11,83,09,313,,67,64,182,,68,11,202,*50
$GPGGA,200350.0,,,,,0,,,,,,,,*7C
$GNGNS,200350.0,,,,,NN,,,,,,*49
$GPVTG,,T,,M,,N,,K,N*2C
$GPRMC,,V,,,,,,,,,,N*53
$GPGSA,A,1,,,,,,,,,,,,,,,*1E
$GNGSA,A,1,,,,,,,,,,,,,,,*00
$GPGSV,3,1,12,05,55,223,18,06,41,074,22,19,26,136,18,02,72,002,*73
$GPGSV,3,2,12,09,22,052,,12,33,244,,13,01,174,,17,06,137,*70
$GPGSV,3,3,12,20,03,230,,23,04,032,,25,26,288,,29,17,313,*73
$GLGSV,3,1,11,66,52,040,26,82,60,343,14,81,53,101,23,74,01,357,*60
$GLGSV,3,2,11,73,07,312,,80,,,,65,,,,88,04,123,*68
$GLGSV,3,3,11,83,09,313,,67,64,182,,68,11,202,*50
$GPGGA,200351.0,,,,,0,,,,,,,,*7D
$GNGNS,200351.0,,,,,NN,,,,,,*48
$GPVTG,,T,,M,,N,,K,N*2C
$GPRMC,,V,,,,,,,,,,N*53
$GPGSA,A,1,,,,,,,,,,,,,,,*1E
$GNGSA,A,1,,,,,,,,,,,,,,,*00
$GPGSV,3,1,12,05,55,223,21,06,41,074,22,19,26,136,18,02,72,002,*79
$GPGSV,3,2,12,09,22,052,,12,33,244,,13,01,174,,17,06,137,*70
$GPGSV,3,3,12,20,03,230,,23,04,032,,25,26,288,,29,17,313,*73
$GLGSV,3,1,11,66,52,040,28,82,60,343,14,81,53,101,23,74,01,357,*6E
$GLGSV,3,2,11,73,07,312,,80,,,,65,,,,88,04,123,*68
$GLGSV,3,3,11,83,09,313,,67,64,182,,68,11,202,*50
$GPGGA,200352.0,,,,,0,,,,,,,,*7E
$GNGNS,200352.0,,,,,NN,,,,,,*4B
$GPVTG,,T,,M,,N,,K,N*2C
$GPRMC,,V,,,,,,,,,,N*53
$GPGSA,A,1,,,,,,,,,,,,,,,*1E
$GNGSA,A,1,,,,,,,,,,,,,,,*00
$GPGSV,3,1,12,02,72,002,13,05,55,223,19,06,41,074,22,19,26,136,15*7D
$GPGSV,3,2,12,09,22,052,,12,33,244,,13,01,174,,17,06,137,*70
$GPGSV,3,3,12,20,03,230,,23,04,032,,25,26,288,,29,17,313,*73
$GLGSV,3,1,11,66,52,040,25,82,60,343,14,81,53,101,23,67,64,182,11*68
$GLGSV,3,2,11,74,01,357,,73,07,312,,80,,,,65,,,*6F
$GLGSV,3,3,11,88,04,123,,83,09,313,,68,11,202,*5C
$GPGGA,200353.0,4112.557042,N,07348.245925,W,1,04,1.7,168.0,M,-37.0,M,,*6F
$GNGNS,200353.0,4112.557042,N,07348.245925,W,AA,05,1.7,168.0,-37.0,,*5A
$GPVTG,148.1,T,148.1,M,0.0,N,0.0,K,A*23
$GPRMC,200353.0,A,4112.557042,N,07348.245925,W,0.0,148.1,300816,0.0,E,A*12
$GPGSA,A,2,02,05,06,19,,,,,,,,,2.0,1.7,1.0*3F
$GNGSA,A,2,02,05,06,19,,,,,,,,,2.0,1.7,1.0*21
$GNGSA,A,2,81,,,,,,,,,,,,2.0,1.7,1.0*21
$GPGSV,3,1,12,02,72,002,13,05,55,223,21,06,41,074,22,19,26,136,15*76
$GPGSV,3,2,12,09,22,052,,12,33,244,,13,01,174,,17,06,137,*70
$GPGSV,3,3,12,20,03,230,,23,04,032,,25,26,288,,29,17,313,*73
$GLGSV,3,1,11,66,52,040,26,82,60,343,14,81,53,101,22,67,64,182,11*6A
$GLGSV,3,2,11,74,01,357,,73,07,312,,80,,,,65,,,*6F
$GLGSV,3,3,11,88,04,123,,83,09,313,,68,11,202,*5C
$GPGGA,200354.0,4112.557068,N,07348.245950,W,1,04,1.7,167.9,M,-37.0,M,,*64
$GNGNS,200354.0,4112.557068,N,07348.245950,W,AA,05,1.7,167.9,-37.0,,*51
$GPVTG,148.1,T,148.1,M,0.0,N,0.0,K,A*23
$GPRMC,200354.0,A,4112.557068,N,07348.245950,W,0.0,148.1,300816,0.0,E,A*1F
$GPGSA,A,2,02,05,06,19,,,,,,,,,2.0,1.7,1.0*3F
$GNGSA,A,2,02,05,06,19,,,,,,,,,2.0,1.7,1.0*21
$GNGSA,A,2,81,,,,,,,,,,,,2.0,1.7,1.0*21
$GPGSV,3,1,12,02,72,002,13,05,55,223,20,06,41,074,22,19,26,136,15*77
$GPGSV,3,2,12,09,22,052,,12,33,244,,13,01,174,,17,06,137,*70
$GPGSV,3,3,12,20,03,230,,23,04,032,,25,26,288,,29,17,313,*73
$GLGSV,3,1,11,66,52,040,25,82,60,343,14,81,53,101,23,67,64,182,11*68
$GLGSV,3,2,11,74,01,357,,73,07,312,,80,,,,65,,,*6F
$GLGSV,3,3,11,88,04,123,,83,09,313,,68,11,202,*5C
$GPGGA,200355.0,4112.557066,N,07348.245948,W,1,04,1.7,167.9,M,-37.0,M,,*62
$GNGNS,200355.0,4112.557066,N,07348.245948,W,AA,05,1.7,167.9,-37.0,,*57
$GPVTG,148.1,T,148.1,M,0.0,N,0.0,K,A*23
$GPRMC,200355.0,A,4112.557066,N,07348.245948,W,0.0,148.1,300816,0.0,E,A*19
$GPGSA,A,2,02,05,06,19,,,,,,,,,2.0,1.7,1.0*3F
$GNGSA,A,2,02,05,06,19,,,,,,,,,2.0,1.7,1.0*21
$GNGSA,A,2,81,,,,,,,,,,,,2.0,1.7,1.0*21
$GPGSV,3,1,12,02,72,002,13,05,55,223,19,06,41,074,22,19,26,136,16*7E
$GPGSV,3,2,12,09,22,052,,12,33,244,,13,01,174,,17,06,137,*70
$GPGSV,3,3,12,20,03,230,,23,04,032,,25,26,288,,29,17,313,*73
$GLGSV,3,1,10,66,52,040,25,81,53,101,24,67,64,182,11,74,01,357,*60
$GLGSV,3,2,10,73,07,312,,80,,,,65,,,,88,04,123,*69
$GLGSV,3,3,10,83,09,313,,68,11,202,*69
$GPGGA,200356.0,4112.557044,N,07348.245929,W,1,04,1.7,168.1,M,-37.0,M,,*61
$GNGNS,200356.0,4112.557044,N,07348.245929,W,AA,05,1.7,168.1,-37.0,,*54
$GPVTG,148.1,T,148.1,M,0.0,N,0.0,K,A*23
$GPRMC,200356.0,A,4112.557044,N,07348.245929,W,0.0,148.1,300816,0.0,E,A*1D
$GPGSA,A,2,02,05,06,19,,,,,,,,,2.0,1.7,1.0*3F
$GNGSA,A,2,02,05,06,19,,,,,,,,,2.0,1.7,1.0*21
$GNGSA,A,2,81,,,,,,,,,,,,2.0,1.7,1.0*21
$GPGSV,3,1,12,02,72,002,13,05,55,223,19,06,41,074,23,19,26,136,16*7F
$GPGSV,3,2,12,09,22,052,,12,33,244,,13,01,174,,17,06,137,*70
$GPGSV,3,3,12,20,03,230,,23,04,032,,25,26,288,,29,17,313,*73
$GLGSV,3,1,11,66,52,040,27,81,53,101,24,67,64,182,15,74,01,357,*67
$GLGSV,3,2,11,73,07,312,,82,60,343,,80,,,,65,,,*64
$GLGSV,3,3,11,88,04,123,,83,09,313,,68,11,202,*5C
$GPGGA,200357.0,4112.557069,N,07348.245952,W,1,04,1.7,168.0,M,-37.0,M,,*62
$GNGNS,200357.0,4112.557069,N,07348.245952,W,AA,05,1.7,168.0,-37.0,,*57
$GPVTG,148.1,T,148.1,M,0.0,N,0.0,K,A*23
$GPRMC,200357.0,A,4112.557069,N,07348.245952,W,0.0,148.1,300816,0.0,E,A*1F
$GPGSA,A,2,02,05,06,19,,,,,,,,,2.0,1.7,1.0*3F
$GNGSA,A,2,02,05,06,19,,,,,,,,,2.0,1.7,1.0*21
$GNGSA,A,2,81,,,,,,,,,,,,2.0,1.7,1.0*21
$GPGSV,3,1,12,02,72,002,16,05,55,223,21,06,41,074,23,19,26,136,16*71
$GPGSV,3,2,12,09,22,052,,12,33,244,,13,01,174,,17,06,137,*70
$GPGSV,3,3,12,20,03,230,,23,04,032,,25,26,288,,29,17,313,*73
$GLGSV,3,1,11,66,52,040,26,81,53,101,22,67,64,182,15,74,01,357,*60
$GLGSV,3,2,11,73,07,312,,82,60,343,,80,,,,65,,,*64
$GLGSV,3,3,11,88,04,123,,83,09,313,,68,11,202,*5C
$GPGGA,200358.0,4112.557099,N,07348.245991,W,1,04,1.7,167.9,M,-37.0,M,,*6B
$GNGNS,200358.0,4112.557099,N,07348.245991,W,AA,05,1.7,167.9,-37.0,,*5E
$GPVTG,148.1,T,148.1,M,0.0,N,0.0,K,A*23
$GPRMC,200358.0,A,4112.557099,N,07348.245991,W,0.0,148.1,300816,0.0,E,A*10
$GPGSA,A,2,02,05,06,19,,,,,,,,,2.0,1.7,1.0*3F
$GNGSA,A,2,02,05,06,19,,,,,,,,,2.0,1.7,1.0*21
$GNGSA,A,2,81,,,,,,,,,,,,2.0,1.7,1.0*21
$GPGSV,3,1,12,02,72,002,16,05,55,223,21,06,41,074,25,19,26,136,15*74
$GPGSV,3,2,12,09,22,052,,12,33,244,,13,01,174,,17,06,137,*70
$GPGSV,3,3,12,20,03,230,,23,04,032,,25,26,288,,29,17,313,*73
$GLGSV,3,1,11,66,52,040,25,81,53,101,24,67,64,182,18,74,01,357,*68
$GLGSV,3,2,11,73,07,312,,82,60,343,,80,,,,65,,,*64
$GLGSV,3,3,11,88,04,123,,83,09,313,,68,11,202,*5C
$GPGGA,200359.0,4112.557107,N,07348.245994,W,1,04,1.7,167.8,M,-37.0,M,,*68
$GNGNS,200359.0,4112.557107,N,07348.245994,W,AA,05,1.7,167.8,-37.0,,*5D
$GPVTG,148.1,T,148.1,M,0.0,N,0.0,K,A*23
$GPRMC,200359.0,A,4112.557107,N,07348.245994,W,0.0,148.1,300816,0.0,E,A*12
$GPGSA,A,2,02,05,06,19,,,,,,,,,2.0,1.7,1.0*3F
$GNGSA,A,2,02,05,06,19,,,,,,,,,2.0,1.7,1.0*21
$GNGSA,A,2,81,,,,,,,,,,,,2.0,1.7,1.0*21
$GPGSV,3,1,12,02,72,002,16,05,55,223,20,06,41,074,23,12,33,244,13*7C
$GPGSV,3,2,12,19,26,136,15,09,22,052,,13,01,174,,17,06,137,*7D
$GPGSV,3,3,12,20,03,230,,23,04,032,,25,26,288,,29,17,313,*73
$GLGSV,3,1,11,66,52,040,24,81,53,101,22,67,64,182,18,74,01,357,*6F
$GLGSV,3,2,11,73,07,312,,82,60,343,,80,,,,65,,,*64
$GLGSV,3,3,11,88,04,123,,83,09,313,,68,11,202,*5C
$GPGGA,200400.0,4112.557116,N,07348.245999,W,1,05,1.5,167.8,M,-37.0,M,,*6D
$GNGNS,200400.0,4112.557116,N,07348.245999,W,AA,06,1.5,167.8,-37.0,,*5A
$GPVTG,148.1,T,148.1,M,0.0,N,0.0,K,A*23
$GPRMC,200400.0,A,4112.557116,N,07348.245999,W,0.0,148.1,300816,0.0,E,A*14
$GPGSA,A,2,02,05,06,12,19,,,,,,,,1.8,1.5,1.0*35
$GNGSA,A,2,02,05,06,12,19,,,,,,,,1.8,1.5,1.0*2B
$GNGSA,A,2,81,,,,,,,,,,,,1.8,1.5,1.0*28
$GPGSV,3,1,12,02,72,002,16,05,55,223,21,06,41,074,22,12,33,244,13*7C
$GPGSV,3,2,12,19,26,136,15,09,22,052,,13,01,174,,17,06,137,*7D
$GPGSV,3,3,12,20,03,230,,23,04,032,,25,26,288,,29,17,313,*73
$GLGSV,3,1,11,66,52,040,24,81,53,101,22,67,64,182,19,74,01,357,*6E
$GLGSV,3,2,11,73,07,312,,82,60,343,,80,,,,65,,,*64
$GLGSV,3,3,11,88,04,123,,83,09,313,,68,11,202,*5C
$GPGGA,200401.0,4112.557103,N,07348.245983,W,1,05,1.5,167.8,M,-37.0,M,,*63
$GNGNS,200401.0,4112.557103,N,07348.245983,W,AA,06,1.5,167.8,-37.0,,*54
$GPVTG,148.1,T,148.1,M,0.0,N,0.0,K,A*23
$GPRMC,200401.0,A,4112.557103,N,07348.245983,W,0.0,148.1,300816,0.0,E,A*1A
$GPGSA,A,2,02,05,06,12,19,,,,,,,,1.8,1.5,1.0*35
$GNGSA,A,2,02,05,06,12,19,,,,,,,,1.8,1.5,1.0*2B
$GNGSA,A,2,81,,,,,,,,,,,,1.8,1.5,1.0*28
$GPGSV,3,1,12,02,72,002,14,05,55,223,20,06,41,074,24,12,33,244,13*79
$GPGSV,3,2,12,19,26,136,15,09,22,052,,13,01,174,,17,06,137,*7D
$GPGSV,3,3,12,20,03,230,,23,04,032,,25,26,288,,29,17,313,*73
$GLGSV,3,1,11,66,52,040,25,81,53,101,24,67,64,182,18,74,01,357,*68
$GLGSV,3,2,11,73,07,312,,82,60,343,,80,,,,65,,,*64
$GLGSV,3,3,11,88,04,123,,83,09,313,,68,11,202,*5C
$GPGGA,200402.0,4112.557121,N,07348.245991,W,1,05,1.5,167.7,M,-37.0,M,,*6C
$GNGNS,200402.0,4112.557121,N,07348.245991,W,AA,06,1.5,167.7,-37.0,,*5B
$GPVTG,148.1,T,148.1,M,0.0,N,0.0,K,A*23
$GPRMC,200402.0,A,4112.557121,N,07348.245991,W,0.0,148.1,300816,0.0,E,A*1A
$GPGSA,A,2,02,05,06,12,19,,,,,,,,1.8,1.5,1.0*35
$GNGSA,A,2,02,05,06,12,19,,,,,,,,1.8,1.5,1.0*2B
$GNGSA,A,2,81,,,,,,,,,,,,1.8,1.5,1.0*28
$GPGSV,3,1,12,02,72,002,14,05,55,223,22,06,41,074,27,12,33,244,13*78
$GPGSV,3,2,12,19,26,136,15,09,22,052,,13,01,174,,17,06,137,*7D
$GPGSV,3,3,12,20,03,230,,23,04,032,,25,26,288,,29,17,313,*73
$GLGSV,3,1,11,66,52,040,26,81,53,101,25,67,64,182,18,74,01,357,*6A
$GLGSV,3,2,11,73,07,312,,82,60,343,,80,,,,65,,,*64
$GLGSV,3,3,11,88,04,123,,83,09,313,,68,11,202,*5C
$GPGGA,200403.0,4112.557113,N,07348.245981,W,1,05,1.5,167.7,M,-37.0,M,,*6D
$GNGNS,200403.0,4112.557113,N,07348.245981,W,AA,06,1.5,167.7,-37.0,,*5A
$GPVTG,148.1,T,148.1,M,0.0,N,0.0,K,A*23
$GPRMC,200403.0,A,4112.557113,N,07348.245981,W,0.0,148.1,300816,0.0,E,A*1B
$GPGSA,A,2,02,05,06,12,19,,,,,,,,1.8,1.5,1.0*35
$GNGSA,A,2,02,05,06,12,19,,,,,,,,1.8,1.5,1.0*2B
$GNGSA,A,2,81,,,,,,,,,,,,1.8,1.5,1.0*28
$GPGSV,3,1,12,02,72,002,14,05,55,223,21,06,41,074,26,12,33,244,13*7A
$GPGSV,3,2,12,19,26,136,15,09,22,052,,13,01,174,,17,06,137,*7D
$GPGSV,3,3,12,20,03,230,,23,04,032,,25,26,288,,29,17,313,*73
$GLGSV,3,1,11,66,52,040,25,81,53,101,25,67,64,182,17,74,01,357,*66
$GLGSV,3,2,11,73,07,312,,82,60,343,,80,,,,65,,,*64
$GLGSV,3,3,11,88,04,123,,83,09,313,,68,11,202,*5C
$GPGGA,200404.0,4112.557114,N,07348.245975,W,1,05,1.5,167.7,M,-37.0,M,,*66
$GNGNS,200404.0,4112.557114,N,07348.245975,W,AA,06,1.5,167.7,-37.0,,*51
$GPVTG,148.1,T,148.1,M,0.0,N,0.0,K,A*23
$GPRMC,200404.0,A,4112.557114,N,07348.245975,W,0.0,148.1,300816,0.0,E,A*10
$GPGSA,A,2,02,05,06,12,19,,,,,,,,1.8,1.5,1.0*35
$GNGSA,A,2,02,05,06,12,19,,,,,,,,1.8,1.5,1.0*2B
$GNGSA,A,2,81,,,,,,,,,,,,1.8,1.5,1.0*28
$GPGSV,3,1,12,02,72,002,14,05,55,223,22,06,41,074,26,12,33,244,13*79
$GPGSV,3,2,12,19,26,136,15,09,22,052,,13,01,174,,17,06,137,*7D
$GPGSV,3,3,12,20,03,230,,23,04,032,,25,26,288,,29,17,313,*73
$GLGSV,3,1,11,66,52,040,25,81,53,101,24,67,64,182,17,74,01,357,*67
$GLGSV,3,2,11,73,07,312,,82,60,343,,80,,,,65,,,*64
$GLGSV,3,3,11,88,04,123,,83,09,313,,68,11,202,*5C
$GPGGA,200405.0,4112.557083,N,07348.245926,W,1,05,1.5,167.8,M,-37.0,M,,*61
$GNGNS,200405.0,4112.557083,N,07348.245926,W,AA,06,1.5,167.8,-37.0,,*56
$GPVTG,148.1,T,148.1,M,0.0,N,0.0,K,A*23
$GPRMC,200405.0,A,4112.557083,N,07348.245926,W,0.0,148.1,300816,0.0,E,A*18
$GPGSA,A,2,02,05,06,12,19,,,,,,,,1.8,1.5,1.0*35
$GNGSA,A,2,02,05,06,12,19,,,,,,,,1.8,1.5,1.0*2B
$GNGSA,A,2,81,,,,,,,,,,,,1.8,1.5,1.0*28
$GPGSV,3,1,12,02,72,002,14,05,55,223,21,06,41,074,26,12,33,244,13*7A
$GPGSV,3,2,12,19,26,136,15,09,22,052,,13,01,174,,17,06,137,*7D
$GPGSV,3,3,12,20,03,230,,23,04,032,,25,26,288,,29,17,313,*73
$GLGSV,3,1,11,66,52,040,26,81,53,101,24,67,64,182,18,74,01,357,*6B
$GLGSV,3,2,11,73,07,312,,82,60,343,,80,,,,65,,,*64
$GLGSV,3,3,11,88,04,123,,83,09,313,,68,11,202,*5C
$GPGGA,200406.0,4112.557104,N,07348.245956,W,1,04,2.6,167.7,M,-37.0,M,,*65
$GNGNS,200406.0,4112.557104,N,07348.245956,W,AA,05,2.6,167.7,-37.0,,*50
$GPVTG,148.1,T,148.1,M,0.0,N,0.0,K,A*23
$GPRMC,200406.0,A,4112.557104,N,07348.245956,W,0.0,148.1,300816,0.0,E,A*12
$GPGSA,A,2,02,05,06,12,,,,,,,,,2.8,2.6,1.0*3E
$GNGSA,A,2,02,05,06,12,,,,,,,,,2.8,2.6,1.0*20
$GNGSA,A,2,81,,,,,,,,,,,,2.8,2.6,1.0*2B
$GPGSV,3,1,12,02,72,002,14,05,55,223,22,06,41,074,26,12,33,244,13*79
$GPGSV,3,2,12,19,26,136,15,09,22,052,,13,01,174,,17,06,137,*7D
$GPGSV,3,3,12,20,03,230,,23,04,032,,25,26,288,,29,17,313,*73
$GLGSV,3,1,11,66,52,040,27,81,53,101,24,67,64,182,18,74,01,357,*6A
$GLGSV,3,2,11,73,07,312,,82,60,343,,80,,,,65,,,*64
$GLGSV,3,3,11,88,04,123,,83,09,313,,68,11,202,*5C
$GPGGA,200407.0,4112.557079,N,07348.245927,W,1,03,2.8,167.8,M,-37.0,M,,*6F
$GNGNS,200407.0,4112.557079,N,07348.245927,W,AA,04,2.8,167.8,-37.0,,*5C
$GPVTG,148.1,T,148.1,M,0.0,N,0.0,K,A*23
$GPRMC,200407.0,A,4112.557079,N,07348.245927,W,0.0,148.1,300816,0.0,E,A*1E
$GPGSA,A,2,02,05,06,,,,,,,,,,2.9,2.8,1.0*32
$GNGSA,A,2,02,05,06,,,,,,,,,,2.9,2.8,1.0*2C
$GNGSA,A,2,81,,,,,,,,,,,,2.9,2.8,1.0*24
$GPGSV,3,1,12,02,72,002,14,05,55,223,20,06,41,074,25,12,33,244,13*78
$GPGSV,3,2,12,19,26,136,15,09,22,052,,13,01,174,,17,06,137,*7D
$GPGSV,3,3,12,20,03,230,,23,04,032,,25,26,288,,29,17,313,*73
$GLGSV,3,1,11,66,52,040,26,81,53,101,24,67,64,182,18,74,01,357,*6B
$GLGSV,3,2,11,73,07,312,,82,60,343,,80,,,,65,,,*64
$GLGSV,3,3,11,88,04,123,,83,09,313,,68,11,202,*5C
$GPGGA,200408.0,4112.557077,N,07348.245936,W,1,03,2.8,167.8,M,-37.0,M,,*6E
$GNGNS,200408.0,4112.557077,N,07348.245936,W,AA,04,2.8,167.8,-37.0,,*5D
$GPVTG,148.1,T,148.1,M,0.0,N,0.0,K,A*23
$GPRMC,200408.0,A,4112.557077,N,07348.245936,W,0.0,148.1,300816,0.0,E,A*1F
$GPGSA,A,2,02,05,06,,,,,,,,,,2.9,2.8,1.0*32
$GNGSA,A,2,02,05,06,,,,,,,,,,2.9,2.8,1.0*2C
$GNGSA,A,2,81,,,,,,,,,,,,2.9,2.8,1.0*24
$GPGSV,3,1,12,02,72,002,14,05,55,223,21,06,41,074,25,12,33,244,13*79
$GPGSV,3,2,12,19,26,136,15,09,22,052,,13,01,174,,17,06,137,*7D
$GPGSV,3,3,12,20,03,230,,23,04,032,,25,26,288,,29,17,313,*73
$GLGSV,3,1,11,66,52,040,28,81,53,101,25,67,64,182,18,74,01,357,*64
$GLGSV,3,2,11,73,07,312,,82,60,343,,80,,,,65,,,*64
$GLGSV,3,3,11,88,04,123,,83,09,313,,68,11,202,*5C
$GPGGA,200409.0,4112.557090,N,07348.245948,W,1,02,7.6,167.8,M,-37.0,M,,*65
$GNGNS,200409.0,4112.557090,N,07348.245948,W,AA,03,7.6,167.8,-37.0,,*50
$GPVTG,148.1,T,148.1,M,0.0,N,0.0,K,A*23
$GPRMC,200409.0,A,4112.557090,N,07348.245948,W,0.0,148.1,300816,0.0,E,A*1E
$GPGSA,A,2,05,06,,,,,,,,,,,7.7,7.6,1.0*30
$GNGSA,A,2,05,06,,,,,,,,,,,7.7,7.6,1.0*2E
$GNGSA,A,2,81,,,,,,,,,,,,7.7,7.6,1.0*24
$GPGSV,3,1,12,02,72,002,13,05,55,223,21,06,41,074,24,12,33,244,13*7F
$GPGSV,3,2,12,19,26,136,15,09,22,052,,13,01,174,,17,06,137,*7D
$GPGSV,3,3,12,20,03,230,,23,04,032,,25,26,288,,29,17,313,*73
$GLGSV,3,1,11,66,52,040,24,81,53,101,24,67,64,182,18,74,01,357,*69
$GLGSV,3,2,11,73,07,312,,82,60,343,,80,,,,65,,,*64
$GLGSV,3,3,11,88,04,123,,83,09,313,,68,11,202,*5C
$GPGGA,200410.0,4112.557131,N,07348.245997,W,1,03,2.8,167.6,M,-37.0,M,,*61
$GNGNS,200410.0,4112.557131,N,07348.245997,W,AA,04,2.8,167.6,-37.0,,*52
$GPVTG,148.1,T,148.1,M,0.0,N,0.0,K,A*23
$GPRMC,200410.0,A,4112.557131,N,07348.245997,W,0.0,148.1,300816,0.0,E,A*1E
$GPGSA,A,2,02,05,06,,,,,,,,,,2.9,2.8,1.0*32
$GNGSA,A,2,02,05,06,,,,,,,,,,2.9,2.8,1.0*2C
$GNGSA,A,2,81,,,,,,,,,,,,2.9,2.8,1.0*24
$GPGSV,3,1,12,02,72,002,13,05,55,223,21,06,41,074,23,12,33,244,13*78
$GPGSV,3,2,12,19,26,136,12,09,22,052,,13,01,174,,17,06,137,*7A
$GPGSV,3,3,12,20,03,230,,23,04,032,,25,26,288,,29,17,313,*73
$GLGSV,3,1,11,66,52,040,22,81,53,101,20,67,64,182,17,74,01,357,*64
$GLGSV,3,2,11,73,07,312,,82,60,343,,80,,,,65,,,*64
$GLGSV,3,3,11,88,04,123,,83,09,313,,68,11,202,*5C
$GPGGA,200411.0,4112.557121,N,07348.245990,W,1,04,1.7,167.6,M,-37.0,M,,*6D
$GNGNS,200411.0,4112.557121,N,07348.245990,W,AA,05,1.7,167.6,-37.0,,*58
$GPVTG,148.1,T,148.1,M,0.0,N,0.0,K,A*23
$GPRMC,200411.0,A,4112.557121,N,07348.245990,W,0.0,148.1,300816,0.0,E,A*19
$GPGSA,A,2,02,05,06,19,,,,,,,,,2.0,1.7,1.0*3F
$GNGSA,A,2,02,05,06,19,,,,,,,,,2.0,1.7,1.0*21
$GNGSA,A,2,81,,,,,,,,,,,,2.0,1.7,1.0*21
$GPGSV,3,1,12,02,72,002,17,05,55,223,21,06,41,074,22,12,33,244,13*7D
$GPGSV,3,2,12,19,26,136,12,09,22,052,,13,01,174,,17,06,137,*7A
$GPGSV,3,3,12,20,03,230,,23,04,032,,25,26,288,,29,17,313,*73
$GLGSV,3,1,11,66,52,040,25,81,53,101,21,67,64,182,19,74,01,357,*6C
$GLGSV,3,2,11,73,07,312,,82,60,343,,80,,,,65,,,*64
$GLGSV,3,3,11,88,04,123,,83,09,313,,68,11,202,*5C
$GPGGA,200412.0,4112.557144,N,07348.246013,W,1,04,1.7,167.6,M,-37.0,M,,*6C
$GNGNS,200412.0,4112.557144,N,07348.246013,W,AA,05,1.7,167.6,-37.0,,*59
$GPVTG,148.1,T,148.1,M,0.0,N,0.0,K,A*23
$GPRMC,200412.0,A,4112.557144,N,07348.246013,W,0.0,148.1,300816,0.0,E,A*18
$GPGSA,A,2,02,05,06,19,,,,,,,,,2.0,1.7,1.0*3F
$GNGSA,A,2,02,05,06,19,,,,,,,,,2.0,1.7,1.0*21
$GNGSA,A,2,81,,,,,,,,,,,,2.0,1.7,1.0*21
$GPGSV,3,1,12,02,72,002,19,05,55,223,22,06,41,074,23,12,33,244,13*71
$GPGSV,3,2,12,19,26,136,17,09,22,052,,13,01,174,,17,06,137,*7F
$GPGSV,3,3,12,20,03,230,,23,04,032,,25,26,288,,29,17,313,*73
$GLGSV,3,1,11,66,52,040,25,81,53,101,17,67,64,182,19,74,01,357,*69
$GLGSV,3,2,11,73,07,312,,82,60,343,,80,,,,65,,,*64
$GLGSV,3,3,11,88,04,123,,83,09,313,,68,11,202,*5C
$GPGGA,200413.0,4112.557188,N,07348.246040,W,1,04,1.7,167.7,M,-37.0,M,,*6A
$GNGNS,200413.0,4112.557188,N,07348.246040,W,AA,05,1.7,167.7,-37.0,,*5F
$GPVTG,148.1,T,148.1,M,0.0,N,0.0,K,A*23
$GPRMC,200413.0,A,4112.557188,N,07348.246040,W,0.0,148.1,300816,0.0,E,A*1F
$GPGSA,A,2,02,05,06,19,,,,,,,,,2.0,1.7,1.0*3F
$GNGSA,A,2,02,05,06,19,,,,,,,,,2.0,1.7,1.0*21
$GNGSA,A,2,81,,,,,,,,,,,,2.0,1.7,1.0*21
$GPGSV,3,1,12,02,72,004,19,05,55,223,23,06,41,074,23,12,32,244,13*77
$GPGSV,3,2,12,19,26,137,18,09,22,052,,13,01,174,,17,06,137,*71
$GPGSV,3,3,12,20,04,230,,23,04,032,,25,26,288,,29,17,313,*74
$GLGSV,3,1,09,66,52,040,26,81,53,101,19,67,64,182,19,74,01,357,*6D
$GLGSV,3,2,09,73,07,312,,82,60,343,,88,04,123,,83,10,313,*69
$GLGSV,3,3,09,68,11,202,*52
$GPGGA,200414.0,4112.557147,N,07348.246024,W,1,04,1.7,167.7,M,-37.0,M,,*6C
$GNGNS,200414.0,4112.557147,N,07348.246024,W,AA,05,1.7,167.7,-37.0,,*59
$GPVTG,148.1,T,148.1,M,0.0,N,0.0,K,A*23
$GPRMC,200414.0,A,4112.557147,N,07348.246024,W,0.0,148.1,300816,0.0,E,A*19
$GPGSA,A,2,02,05,06,19,,,,,,,,,2.0,1.7,1.0*3F
$GNGSA,A,2,02,05,06,19,,,,,,,,,2.0,1.7,1.0*21
$GNGSA,A,2,81,,,,,,,,,,,,2.0,1.7,1.0*21
$GPGSV,3,1,12,02,72,004,17,05,55,223,22,06,41,074,22,12,32,244,13*79
$GPGSV,3,2,12,19,26,137,18,09,22,052,,13,01,174,,17,06,137,*71
$GPGSV,3,3,12,20,04,230,,23,04,032,,25,26,288,,29,17,313,*74
$GLGSV,3,1,09,66,52,040,25,81,53,101,17,67,64,182,18,74,01,357,*61
$GLGSV,3,2,09,73,07,312,,82,60,343,,88,04,123,,83,10,313,*69
$GLGSV,3,3,09,68,11,202,*52
$GPGGA,200415.0,4112.557141,N,07348.246024,W,1,04,1.7,167.8,M,-37.0,M,,*64
$GNGNS,200415.0,4112.557141,N,07348.246024,W,AA,05,1.7,167.8,-37.0,,*51
$GPVTG,148.1,T,148.1,M,0.0,N,0.0,K,A*23
$GPRMC,200415.0,A,4112.557141,N,07348.246024,W,0.0,148.1,300816,0.0,E,A*1E
$GPGSA,A,2,02,05,06,19,,,,,,,,,2.0,1.7,1.0*3F
$GNGSA,A,2,02,05,06,19,,,,,,,,,2.0,1.7,1.0*21
$GNGSA,A,2,81,,,,,,,,,,,,2.0,1.7,1.0*21
$GPGSV,3,1,12,02,72,004,18,05,55,223,24,06,41,074,22,12,32,244,13*70
$GPGSV,3,2,12,19,26,137,19,09,22,052,,13,01,174,,17,06,137,*70
$GPGSV,3,3,12,20,04,230,,23,04,032,,25,26,288,,29,17,313,*74
$GLGSV,3,1,09,66,52,040,25,81,53,101,19,67,64,182,18,74,01,357,*6F
$GLGSV,3,2,09,73,07,312,,82,60,343,,88,04,123,,83,10,313,*69
$GLGSV,3,3,09,68,11,202,*52
$GPGGA,200416.0,4112.557130,N,07348.246030,W,1,04,1.7,167.7,M,-37.0,M,,*6B
$GNGNS,200416.0,4112.557130,N,07348.246030,W,AA,05,1.7,167.7,-37.0,,*5E
$GPVTG,148.1,T,148.1,M,0.0,N,0.0,K,A*23
$GPRMC,200416.0,A,4112.557130,N,07348.246030,W,0.0,148.1,300816,0.0,E,A*1E
$GPGSA,A,2,02,05,06,19,,,,,,,,,2.0,1.7,1.0*3F
$GNGSA,A,2,02,05,06,19,,,,,,,,,2.0,1.7,1.0*21
$GNGSA,A,2,81,,,,,,,,,,,,2.0,1.7,1.0*21
$GPGSV,3,1,12,02,72,004,20,05,55,223,24,06,41,074,22,12,32,244,13*7B
$GPGSV,3,2,12,19,26,137,19,09,22,052,,13,01,174,,17,06,137,*70
$GPGSV,3,3,12,20,04,230,,23,04,032,,25,26,288,,29,17,313,*74
$GLGSV,3,1,09,66,52,040,24,81,53,101,19,67,64,182,18,74,01,357,*6E
$GLGSV,3,2,09,73,07,312,,82,60,343,,88,04,123,,83,10,313,*69
$GLGSV,3,3,09,68,11,202,*52
$GPGGA,200417.0,4112.557156,N,07348.246055,W,1,04,1.7,167.8,M,-37.0,M,,*66
$GNGNS,200417.0,4112.557156,N,07348.246055,W,AA,05,1.7,167.8,-37.0,,*53
$GPVTG,148.1,T,148.1,M,0.0,N,0.0,K,A*23
$GPRMC,200417.0,A,4112.557156,N,07348.246055,W,0.0,148.1,300816,0.0,E,A*1C
$GPGSA,A,2,02,05,06,19,,,,,,,,,2.0,1.7,1.0*3F
$GNGSA,A,2,02,05,06,19,,,,,,,,,2.0,1.7,1.0*21
$GNGSA,A,2,81,,,,,,,,,,,,2.0,1.7,1.0*21
$GPGSV,3,1,12,02,72,004,20,05,55,223,24,06,41,074,23,12,32,244,13*7A
$GPGSV,3,2,12,19,26,137,18,09,22,052,,13,01,174,,17,06,137,*71
$GPGSV,3,3,12,20,04,230,,23,04,032,,25,26,288,,29,17,313,*74
$GLGSV,3,1,09,66,52,040,25,81,53,101,18,67,64,182,18,74,01,357,*6E
$GLGSV,3,2,09,73,07,312,,82,60,343,,88,04,123,,83,10,313,*69
$GLGSV,3,3,09,68,11,202,*52
$GPGGA,200418.0,4112.557198,N,07348.246088,W,1,04,1.7,167.8,M,-37.0,M,,*6B
$GNGNS,200418.0,4112.557198,N,07348.246088,W,AA,05,1.7,167.8,-37.0,,*5E
$GPVTG,148.1,T,148.1,M,0.0,N,0.0,K,A*23
$GPRMC,200418.0,A,4112.557198,N,07348.246088,W,0.0,148.1,300816,0.0,E,A*11
$GPGSA,A,2,02,05,06,19,,,,,,,,,2.0,1.7,1.0*3F
$GNGSA,A,2,02,05,06,19,,,,,,,,,2.0,1.7,1.0*21
$GNGSA,A,2,81,,,,,,,,,,,,2.0,1.7,1.0*21
$GPGSV,3,1,11,02,72,004,19,05,55,223,23,06,41,074,21,19,26,137,18*74
$GPGSV,3,2,11,09,22,052,,13,01,174,,17,06,137,,20,04,230,*75
$GPGSV,3,3,11,23,04,032,,25,26,288,,29,17,313,*40
$GLGSV,3,1,09,66,52,040,27,81,53,101,19,67,64,182,17,74,01,357,*62
$GLGSV,3,2,09,73,07,312,,82,60,343,,88,04,123,,83,10,313,*69
$GLGSV,3,3,09,68,11,202,*52
$GPGGA,200419.0,4112.557220,N,07348.246096,W,1,04,1.7,167.9,M,-37.0,M,,*64
$GNGNS,200419.0,4112.557220,N,07348.246096,W,AA,05,1.7,167.9,-37.0,,*51
$GPVTG,148.1,T,148.1,M,0.0,N,0.0,K,A*23
$GPRMC,200419.0,A,4112.557220,N,07348.246096,W,0.0,148.1,300816,0.0,E,A*1F
$GPGSA,A,2,02,05,06,19,,,,,,,,,2.0,1.7,1.0*3F
$GNGSA,A,2,02,05,06,19,,,,,,,,,2.0,1.7,1.0*21
$GNGSA,A,2,81,,,,,,,,,,,,2.0,1.7,1.0*21
$GPGSV,3,1,12,02,72,004,19,05,55,223,23,06,41,074,23,19,26,137,19*74
$GPGSV,3,2,12,09,22,052,,12,32,244,,13,01,174,,17,06,137,*71
$GPGSV,3,3,12,20,04,230,,23,04,032,,25,26,288,,29,17,313,*74
$GLGSV,3,1,09,66,52,040,24,81,53,101,17,67,64,182,17,74,01,357,*6F
$GLGSV,3,2,09,73,07,312,,82,60,343,,88,04,123,,83,10,313,*69
$GLGSV,3,3,09,68,11,202,*52
$GPGGA,200420.0,4112.557241,N,07348.246099,W,1,04,1.7,168.0,M,-37.0,M,,*60
$GNGNS,200420.0,4112.557241,N,07348.246099,W,AA,05,1.7,168.0,-37.0,,*55
$GPVTG,148.1,T,148.1,M,0.0,N,0.0,K,A*23
$GPRMC,200420.0,A,4112.557241,N,07348.246099,W,0.0,148.1,300816,0.0,E,A*1D
$GPGSA,A,2,02,05,06,19,,,,,,,,,2.0,1.7,1.0*3F
$GNGSA,A,2,02,05,06,19,,,,,,,,,2.0,1.7,1.0*21
$GNGSA,A,2,81,,,,,,,,,,,,2.0,1.7,1.0*21
$GPGSV,3,1,12,02,72,004,19,05,55,223,23,06,41,074,22,19,26,137,19*75
$GPGSV,3,2,12,09,22,052,,12,32,244,,13,01,174,,17,06,137,*71
$GPGSV,3,3,12,20,04,230,,23,04,032,,25,26,288,,29,17,313,*74
$GLGSV,3,1,09,66,52,040,25,81,53,101,20,67,64,182,17,74,01,357,*6A
$GLGSV,3,2,09,73,07,312,,82,60,343,,88,04,123,,83,10,313,*69
$GLGSV,3,3,09,68,11,202,*52
$GPGGA,200421.0,4112.557262,N,07348.246130,W,1,04,1.7,168.0,M,-37.0,M,,*62
$GNGNS,200421.0,4112.557262,N,07348.246130,W,AA,05,1.7,168.0,-37.0,,*57
$GPVTG,148.1,T,148.1,M,0.0,N,0.0,K,A*23
$GPRMC,200421.0,A,4112.557262,N,07348.246130,W,0.0,148.1,300816,0.0,E,A*1F
$GPGSA,A,2,02,05,06,19,,,,,,,,,2.0,1.7,1.0*3F
$GNGSA,A,2,02,05,06,19,,,,,,,,,2.0,1.7,1.0*21
$GNGSA,A,2,81,,,,,,,,,,,,2.0,1.7,1.0*21
$GPGSV,3,1,12,02,72,004,20,05,55,223,23,06,41,074,22,19,26,137,19*7F
$GPGSV,3,2,12,09,22,052,,12,32,244,,13,01,174,,17,06,137,*71
$GPGSV,3,3,12,20,04,230,,23,04,032,,25,26,288,,29,17,313,*74
$GLGSV,3,1,09,66,52,040,26,81,53,101,20,67,64,182,17,74,01,357,*69
$GLGSV,3,2,09,73,07,312,,82,60,343,,88,04,123,,83,10,313,*69
$GLGSV,3,3,09,68,11,202,*52
$GPGGA,200422.0,4112.557274,N,07348.246151,W,1,04,1.7,168.0,M,-37.0,M,,*61
$GNGNS,200422.0,4112.557274,N,07348.246151,W,AA,05,1.7,168.0,-37.0,,*54
$GPVTG,148.1,T,148.1,M,0.0,N,0.0,K,A*23
$GPRMC,200422.0,A,4112.557274,N,07348.246151,W,0.0,148.1,300816,0.0,E,A*1C
$GPGSA,A,2,02,05,06,19,,,,,,,,,2.0,1.7,1.0*3F
$GNGSA,A,2,02,05,06,19,,,,,,,,,2.0,1.7,1.0*21
$GNGSA,A,2,81,,,,,,,,,,,,2.0,1.7,1.0*21
$GPGSV,3,1,12,02,72,004,19,05,55,223,23,06,41,074,23,19,26,137,16*7B
$GPGSV,3,2,12,09,22,052,,12,32,244,,13,01,174,,17,06,137,*71
$GPGSV,3,3,12,20,04,230,,23,04,032,,25,26,288,,29,17,313,*74
$GLGSV,3,1,09,66,52,040,23,81,53,101,19,67,64,182,16,74,01,357,*67
$GLGSV,3,2,09,73,07,312,,82,60,343,,88,04,123,,83,10,313,*69
$GLGSV,3,3,09,68,11,202,*52
$GPGGA,200423.0,4112.557280,N,07348.246148,W,1,04,1.7,168.0,M,-37.0,M,,*63
$GNGNS,200423.0,4112.557280,N,07348.246148,W,AA,05,1.7,168.0,-37.0,,*56
$GPVTG,148.1,T,148.1,M,0.0,N,0.0,K,A*23
$GPRMC,200423.0,A,4112.557280,N,07348.246148,W,0.0,148.1,300816,0.0,E,A*1E
$GPGSA,A,2,02,05,06,19,,,,,,,,,2.0,1.7,1.0*3F
$GNGSA,A,2,02,05,06,19,,,,,,,,,2.0,1.7,1.0*21
$GNGSA,A,2,81,,,,,,,,,,,,2.0,1.7,1.0*21
$GPGSV,3,1,12,02,72,004,19,05,55,223,23,06,41,074,21,19,26,137,18*77
$GPGSV,3,2,12,09,22,052,,12,32,244,,13,01,174,,17,06,137,*71
$GPGSV,3,3,12,20,04,230,,23,04,032,,25,26,288,,29,17,313,*74
$GLGSV,3,1,09,66,52,040,27,81,53,101,19,67,64,182,18,74,01,357,*6D
$GLGSV,3,2,09,73,07,312,,82,60,343,,88,04,123,,83,10,313,*69
$GLGSV,3,3,09,68,11,202,*52
$GPGGA,200424.0,4112.557277,N,07348.246145,W,1,04,1.7,167.9,M,-37.0,M,,*67
$GNGNS,200424.0,4112.557277,N,07348.246145,W,AA,05,1.7,167.9,-37.0,,*52
$GPVTG,148.1,T,148.1,M,0.0,N,0.0,K,A*23
$GPRMC,200424.0,A,4112.557277,N,07348.246145,W,0.0,148.1,300816,0.0,E,A*1C
$GPGSA,A,2,02,05,06,19,,,,,,,,,2.0,1.7,1.0*3F
$GNGSA,A,2,02,05,06,19,,,,,,,,,2.0,1.7,1.0*21
$GNGSA,A,2,81,,,,,,,,,,,,2.0,1.7,1.0*21
$GPGSV,3,1,12,02,72,004,19,05,55,223,24,06,41,074,22,19,26,137,18*73
$GPGSV,3,2,12,09,22,052,,12,32,244,,13,01,174,,17,05,137,*72
$GPGSV,3,3,12,20,04,230,,23,04,032,,25,26,288,,29,17,313,*74
$GLGSV,3,1,09,66,52,040,25,81,53,101,19,67,64,182,18,74,01,357,*6F
$GLGSV,3,2,09,73,07,312,,82,60,343,,88,04,123,,83,10,313,*69
$GLGSV,3,3,09,68,11,202,*52
$GPGGA,200425.0,4112.557240,N,07348.246114,W,1,04,1.7,168.0,M,-37.0,M,,*60
$GNGNS,200425.0,4112.557240,N,07348.246114,W,AA,05,1.7,168.0,-37.0,,*55
$GPVTG,148.1,T,148.1,M,0.0,N,0.0,K,A*23
$GPRMC,200425.0,A,4112.557240,N,07348.246114,W,0.0,148.1,300816,0.0,E,A*1D
$GPGSA,A,2,02,05,06,19,,,,,,,,,2.0,1.7,1.0*3F
$GNGSA,A,2,02,05,06,19,,,,,,,,,2.0,1.7,1.0*21
$GNGSA,A,2,81,,,,,,,,,,,,2.0,1.7,1.0*21
$GPGSV,3,1,12,02,72,004,17,05,55,223,22,06,41,074,22,19,26,137,18*7B
$GPGSV,3,2,12,09,22,052,,12,32,244,,13,01,174,,17,05,137,*72
$GPGSV,3,3,12,20,04,230,,23,04,032,,25,26,288,,29,17,313,*74
$GLGSV,3,1,09,66,52,040,24,81,53,101,20,67,64,182,18,74,01,357,*64
$GLGSV,3,2,09,73,07,312,,82,60,343,,88,04,123,,83,10,313,*69
$GLGSV,3,3,09,68,11,202,*52
$GPGGA,200426.0,4112.557241,N,07348.246103,W,1,04,1.7,168.1,M,-37.0,M,,*65
$GNGNS,200426.0,4112.557241,N,07348.246103,W,AA,05,1.7,168.1,-37.0,,*50
$GPVTG,148.1,T,148.1,M,0.0,N,0.0,K,A*23
$GPRMC,200426.0,A,4112.557241,N,07348.246103,W,0.0,148.1,300816,0.0,E,A*19
$GPGSA,A,2,02,05,06,19,,,,,,,,,2.0,1.7,1.0*3F
$GNGSA,A,2,02,05,06,19,,,,,,,,,2.0,1.7,1.0*21
$GNGSA,A,2,81,,,,,,,,,,,,2.0,1.7,1.0*21
$GPGSV,3,1,12,02,72,004,19,05,55,223,22,06,41,074,22,19,26,137,17*7A
$GPGSV,3,2,12,09,22,052,,12,32,244,,13,01,174,,17,05,137,*72
$GPGSV,3,3,12,20,04,230,,23,04,032,,25,26,288,,29,17,313,*74
$GLGSV,3,1,09,66,52,040,24,81,53,101,20,67,64,182,15,74,01,357,*69
$GLGSV,3,2,09,73,07,312,,82,60,343,,88,04,123,,83,10,313,*69
$GLGSV,3,3,09,68,11,202,*52
$GPGGA,200427.0,4112.557185,N,07348.246052,W,1,04,1.7,168.1,M,-37.0,M,,*6A
$GNGNS,200427.0,4112.557185,N,07348.246052,W,AA,05,1.7,168.1,-37.0,,*5F
$GPVTG,148.1,T,148.1,M,0.0,N,0.0,K,A*23
