$GPGGA,200854.00,4112.55754,N,07348.24737,W,1,05,2.13,157.6,M,-34.2,M,,*60
$GPGGA,200855.00,4112.55759,N,07348.24735,W,1,05,2.13,157.5,M,-34.2,M,,*6D
$GPGGA,200856.00,4112.55753,N,07348.24710,W,1,05,2.13,157.2,M,-34.2,M,,*64
$GPGGA,200857.00,4112.55765,N,07348.24723,W,1,05,2.13,157.4,M,-34.2,M,,*66
$GPGGA,200858.00,4112.55773,N,07348.24724,W,1,05,2.13,157.5,M,-34.2,M,,*68
$GPGGA,200859.00,4112.55783,N,07348.24737,W,1,05,2.13,157.7,M,-34.2,M,,*66
$GPGGA,200900.00,4112.55787,N,07348.24736,W,1,05,2.13,157.7,M,-34.2,M,,*6E
$GPGGA,200901.00,4112.55784,N,07348.24723,W,1,05,2.13,157.5,M,-34.2,M,,*6A
$GPGGA,200902.00,4112.55776,N,07348.24710,W,1,05,2.13,157.6,M,-34.2,M,,*67
$GPGGA,200903.00,4112.55784,N,07348.24709,W,1,05,2.13,157.6,M,-34.2,M,,*63
$GPGGA,200904.00,4112.55794,N,07348.24724,W,1,05,2.13,157.6,M,-34.2,M,,*6A
$GPGGA,200905.00,4112.55800,N,07348.24731,W,1,05,2.13,157.7,M,-34.2,M,,*6C
$GPGGA,200906.00,4112.55819,N,07348.24745,W,1,05,2.13,157.4,M,-34.2,M,,*67
$GPGGA,200907.00,4112.55827,N,07348.24748,W,1,05,2.13,157.3,M,-34.2,M,,*61
$GPGGA,200908.00,4112.55832,N,07348.24753,W,1,05,2.13,157.2,M,-34.2,M,,*61
$GPGGA,200909.00,4112.55828,N,07348.24752,W,1,05,2.13,157.3,M,-34.2,M,,*6B
$GPGGA,200910.00,4112.55829,N,07348.24749,W,1,05,2.13,157.3,M,-34.2,M,,*68
$GPGGA,200911.00,4112.55832,N,07348.24744,W,1,05,2.13,157.1,M,-34.2,M,,*6C
$GPGGA,200912.00,4112.55833,N,07348.24745,W,1,05,2.13,157.2,M,-34.2,M,,*6C
$GPGGA,200913.00,4112.55835,N,07348.24745,W,1,05,2.13,157.0,M,-34.2,M,,*69
$GPGGA,200914.00,4112.55855,N,07348.24757,W,1,05,2.14,156.9,M,-34.2,M,,*64
$GPGGA,200915.00,4112.55872,N,07348.24773,W,1,05,2.14,156.9,M,-34.2,M,,*66
$GPGGA,200916.00,4112.55881,N,07348.24780,W,1,05,2.14,156.7,M,-34.2,M,,*6B
$GPGGA,200917.00,4112.55883,N,07348.24783,W,1,05,2.14,156.8,M,-34.2,M,,*64
$GPGGA,200918.00,4112.55887,N,07348.24792,W,1,05,2.14,157.0,M,-34.2,M,,*66
$GPGGA,200919.00,4112.55884,N,07348.24796,W,1,05,2.14,157.1,M,-34.2,M,,*61
$GPGGA,200920.00,4112.55885,N,07348.24801,W,1,05,2.14,157.2,M,-34.2,M,,*68
$GPGGA,200921.00,4112.55891,N,07348.24803,W,1,05,2.14,157.2,M,-34.2,M,,*6E
$GPGGA,200922.00,4112.55896,N,07348.24807,W,1,05,2.14,157.2,M,-34.2,M,,*6E
$GPGGA,200923.00,4112.55902,N,07348.24808,W,1,05,2.14,157.2,M,-34.2,M,,*6C
$GPGGA,200924.00,4112.55904,N,07348.24811,W,1,05,2.14,157.3,M,-34.2,M,,*64
$GPGGA,200925.00,4112.55907,N,07348.24819,W,1,05,2.14,157.5,M,-34.2,M,,*68
$GPGGA,200926.00,4112.55921,N,07348.24827,W,1,05,2.14,157.4,M,-34.2,M,,*63
$GPGGA,200927.00,4112.55930,N,07348.24832,W,1,05,2.14,157.5,M,-34.2,M,,*67
$GPGGA,200928.00,4112.55930,N,07348.24836,W,1,05,2.14,157.6,M,-34.2,M,,*6F
$GPGGA,200929.00,4112.55937,N,07348.24845,W,1,05,2.14,157.5,M,-34.2,M,,*6E
$GPGGA,200930.00,4112.55942,N,07348.24851,W,1,05,2.14,157.4,M,-34.2,M,,*60
$GPGGA,200931.00,4112.55949,N,07348.24860,W,1,05,2.14,157.3,M,-34.2,M,,*6F
$GPGGA,200932.00,4112.55960,N,07348.24867,W,1,05,2.14,156.9,M,-34.2,M,,*6B
$GPGGA,200933.00,4112.55973,N,07348.24875,W,1,05,2.14,156.6,M,-34.2,M,,*64
$GPGGA,200934.00,4112.55979,N,07348.24878,W,1,05,2.14,156.6,M,-34.2,M,,*64
$GPGGA,200935.00,4112.55984,N,07348.24885,W,1,05,2.14,156.6,M,-34.2,M,,*65
$GPGGA,200936.00,4112.55991,N,07348.24890,W,1,05,2.14,156.5,M,-34.2,M,,*65
$GPGGA,200937.00,4112.55991,N,07348.24895,W,1,05,2.14,156.7,M,-34.2,M,,*63
$GPGGA,200938.00,4112.55998,N,07348.24900,W,1,05,2.14,156.6,M,-34.2,M,,*69
$GPGGA,200939.00,4112.56003,N,07348.24900,W,1,05,2.14,156.7,M,-34.2,M,,*61
$GPGGA,200940.00,4112.56010,N,07348.24903,W,1,05,2.14,156.8,M,-34.2,M,,*61
$GPGGA,200941.00,4112.56013,N,07348.24906,W,1,05,2.14,156.7,M,-34.2,M,,*69
$GPGGA,200942.00,4112.56014,N,07348.24908,W,1,05,2.14,156.8,M,-34.2,M,,*6C
$GPGGA,200943.00,4112.56014,N,07348.24911,W,1,05,2.14,156.9,M,-34.2,M,,*64
$GPGGA,200944.00,4112.56007,N,07348.24906,W,1,05,2.14,157.2,M,-34.2,M,,*6D
$GPGGA,200945.00,4112.56007,N,07348.24907,W,1,05,2.14,157.3,M,-34.2,M,,*6C
$GPGGA,200946.00,4112.56008,N,07348.24908,W,1,05,2.14,157.4,M,-34.2,M,,*68
$GPGGA,200947.00,4112.56015,N,07348.24906,W,1,05,2.14,157.5,M,-34.2,M,,*6A
$GPGGA,200948.00,4112.56011,N,07348.24905,W,1,05,2.14,157.5,M,-34.2,M,,*62
$GPGGA,200949.00,4112.55998,N,07348.24898,W,1,05,2.14,157.4,M,-34.2,M,,*6C
$GPGGA,200950.00,4112.56001,N,07348.24903,W,1,05,2.14,157.4,M,-34.2,M,,*6D
$GPGGA,200951.00,4112.56001,N,07348.24903,W,1,05,2.14,157.5,M,-34.2,M,,*6D
$GPGGA,200952.00,4112.56003,N,07348.24903,W,1,05,2.14,157.8,M,-34.2,M,,*61
$GPGGA,200953.00,4112.56002,N,07348.24905,W,1,05,2.14,157.9,M,-34.2,M,,*66
$GPGGA,200954.00,4112.56002,N,07348.24905,W,1,05,2.14,158.3,M,-34.2,M,,*64
$GPGGA,200955.00,4112.56003,N,07348.24907,W,1,05,2.14,158.6,M,-34.2,M,,*63
$GPGGA,200956.00,4112.56004,N,07348.24907,W,1,05,2.14,159.0,M,-34.2,M,,*60
$GPGGA,200957.00,4112.55998,N,07348.24907,W,1,05,2.14,159.1,M,-34.2,M,,*6F
$GPGGA,200958.00,4112.55998,N,07348.24907,W,1,05,2.14,159.5,M,-34.2,M,,*64
$GPGGA,200959.00,4112.56002,N,07348.24908,W,1,05,2.14,159.6,M,-34.2,M,,*60
$GPGGA,201000.00,4112.56016,N,07348.24913,W,1,05,2.14,159.4,M,-34.2,M,,*69
$GPGGA,201001.00,4112.56026,N,07348.24915,W,1,05,2.14,159.4,M,-34.2,M,,*6D
$GPGGA,201002.00,4112.56039,N,07348.24918,W,1,05,2.15,159.4,M,-34.2,M,,*6C
$GPGGA,201003.00,4112.56051,N,07348.24924,W,1,05,2.15,159.3,M,-34.2,M,,*6B
$GPGGA,201004.00,4112.56067,N,07348.24927,W,1,05,2.15,159.1,M,-34.2,M,,*68
$GPGGA,201005.00,4112.56063,N,07348.24928,W,1,05,2.15,158.8,M,-34.2,M,,*6A
$GPGGA,201006.00,4112.56079,N,07348.24935,W,1,05,2.15,158.7,M,-34.2,M,,*61
$GPGGA,201007.00,4112.56085,N,07348.24936,W,1,05,2.15,158.5,M,-34.2,M,,*62
$GPGGA,201008.00,4112.56095,N,07348.24939,W,1,05,2.15,158.5,M,-34.2,M,,*63
$GPGGA,201009.00,4112.56111,N,07348.24952,W,1,05,2.15,158.4,M,-34.2,M,,*63
$GPGGA,201010.00,4112.56131,N,07348.24964,W,1,05,2.15,158.5,M,-34.2,M,,*6D
$GPGGA,201011.00,4112.56135,N,07348.24966,W,1,05,2.15,158.5,M,-34.2,M,,*6A
$GPGGA,201012.00,4112.56136,N,07348.24965,W,1,05,2.15,158.4,M,-34.2,M,,*68
$GPGGA,201013.00,4112.56126,N,07348.24955,W,1,05,2.15,158.5,M,-34.2,M,,*6A
$GPGGA,201014.00,4112.56140,N,07348.24959,W,1,05,2.15,158.3,M,-34.2,M,,*67
$GPGGA,201015.00,4112.56137,N,07348.24953,W,1,05,2.15,158.3,M,-34.2,M,,*6C
$GPGGA,201016.00,4112.56172,N,07348.24976,W,1,05,2.15,158.2,M,-34.2,M,,*68
$GPGGA,201017.00,4112.56166,N,07348.24973,W,1,05,2.15,158.0,M,-34.2,M,,*6B
$GPGGA,201018.00,4112.56167,N,07348.24974,W,1,05,2.15,158.1,M,-34.2,M,,*63
$GPGGA,201019.00,4112.56170,N,07348.24973,W,1,05,2.15,158.2,M,-34.2,M,,*60
$GPGGA,201020.00,4112.56170,N,07348.24971,W,1,05,2.15,158.5,M,-34.2,M,,*6F
$GPGGA,201021.00,4112.56170,N,07348.24965,W,1,05,2.15,158.9,M,-34.2,M,,*67
$GPGGA,201022.00,4112.56160,N,07348.24952,W,1,05,2.15,158.8,M,-34.2,M,,*60
$GPGGA,201023.00,4112.56158,N,07348.24945,W,1,05,2.15,158.7,M,-34.2,M,,*63
$GPGGA,201024.00,4112.56155,N,07348.24937,W,1,05,2.15,158.8,M,-34.2,M,,*63
$GPGGA,201025.00,4112.56167,N,07348.24943,W,1,05,2.15,159.0,M,-34.2,M,,*69
$GPGGA,201026.00,4112.56166,N,07348.24932,W,1,05,2.15,159.2,M,-34.2,M,,*6F
$GPGGA,201027.00,4112.56165,N,07348.24930,W,1,05,2.15,159.3,M,-34.2,M,,*6E
$GPGGA,201028.00,4112.56154,N,07348.24918,W,1,05,2.15,159.4,M,-34.2,M,,*6E
$GPGGA,201029.00,4112.56172,N,07348.24934,W,1,05,2.15,159.5,M,-34.2,M,,*64
$GPGGA,201030.00,4112.56169,N,07348.24929,W,1,05,2.15,159.6,M,-34.2,M,,*69
$GPGGA,201031.00,4112.56173,N,07348.24935,W,1,05,2.15,159.8,M,-34.2,M,,*60
$GPGGA,201032.00,4112.56170,N,07348.24932,W,1,05,2.15,159.9,M,-34.2,M,,*66
$GPGGA,201033.00,4112.56161,N,07348.24921,W,1,05,2.15,160.0,M,-34.2,M,,*66
$GPGGA,201034.00,4112.56136,N,07348.24893,W,1,05,2.15,160.0,M,-34.2,M,,*6B
$GPGGA,201035.00,4112.56138,N,07348.24900,W,1,05,2.15,160.2,M,-34.2,M,,*6D
$GPGGA,201036.00,4112.56148,N,07348.24906,W,1,05,2.15,160.3,M,-34.2,M,,*6E
$GPGGA,201037.00,4112.56156,N,07348.24919,W,1,05,2.15,160.4,M,-34.2,M,,*69
$GPGGA,201038.00,4112.56150,N,07348.24921,W,1,05,2.15,160.7,M,-34.2,M,,*68
$GPGGA,201039.00,4112.56156,N,07348.24929,W,1,05,2.15,160.9,M,-34.2,M,,*69
$GPGGA,201040.00,4112.56151,N,07348.24928,W,1,05,2.15,161.1,M,-34.2,M,,*68
$GPGGA,201041.00,4112.56140,N,07348.24922,W,1,05,2.15,161.3,M,-34.2,M,,*61
$GPGGA,201042.00,4112.56126,N,07348.24917,W,1,05,2.15,161.7,M,-34.2,M,,*60
$GPGGA,201043.00,4112.56130,N,07348.24918,W,1,05,2.15,161.6,M,-34.2,M,,*68
$GPGGA,201044.00,4112.56118,N,07348.24910,W,1,05,2.15,161.6,M,-34.2,M,,*6D
$GPGGA,201045.00,4112.56092,N,07348.24897,W,1,05,2.15,161.7,M,-34.2,M,,*60
$GPGGA,201046.00,4112.56075,N,07348.24891,W,1,05,2.15,161.7,M,-34.2,M,,*6C
$GPGGA,201047.00,4112.56068,N,07348.24890,W,1,05,2.15,161.9,M,-34.2,M,,*6E
$GPGGA,201048.00,4112.56092,N,07348.24899,W,1,05,2.15,161.9,M,-34.2,M,,*6D
$GPGGA,201049.00,4112.56100,N,07348.24908,W,1,05,2.16,162.0,M,-34.2,M,,*66
$GPGGA,201050.00,4112.56123,N,07348.24927,W,1,05,2.16,162.3,M,-34.2,M,,*61
$GPGGA,201051.00,4112.56143,N,07348.24942,W,1,05,2.16,162.5,M,-34.2,M,,*63
$GPGGA,201052.00,4112.56156,N,07348.24949,W,1,05,2.16,162.7,M,-34.2,M,,*6D
$GPGGA,201053.00,4112.56146,N,07348.24945,W,1,05,2.16,162.8,M,-34.2,M,,*6E
$GPGGA,201054.00,4112.56147,N,07348.24950,W,1,05,2.16,162.8,M,-34.2,M,,*6C
$GPGGA,201055.00,4112.56146,N,07348.24953,W,1,05,2.16,162.8,M,-34.2,M,,*6F
$GPGGA,201056.00,4112.56162,N,07348.24963,W,1,05,2.16,162.9,M,-34.2,M,,*68
$GPGGA,201057.00,4112.56160,N,07348.24966,W,1,05,2.16,163.0,M,-34.2,M,,*66
$GPGGA,201058.00,4112.56152,N,07348.24960,W,1,05,2.16,162.8,M,-34.2,M,,*67
$GPGGA,201059.00,4112.56171,N,07348.24977,W,1,05,2.16,162.6,M,-34.2,M,,*6F
$GPGGA,201100.00,4112.56182,N,07348.24986,W,1,05,2.16,162.4,M,-34.2,M,,*62
$GPGGA,201101.00,4112.56185,N,07348.24986,W,1,05,2.16,162.6,M,-34.2,M,,*66
$GPGGA,201102.00,4112.56181,N,07348.24984,W,1,05,2.16,162.6,M,-34.2,M,,*63
$GPGGA,201103.00,4112.56206,N,07348.24999,W,1,05,2.16,162.8,M,-34.2,M,,*6C
$GPGGA,201104.00,4112.56197,N,07348.24992,W,1,05,2.16,162.9,M,-34.2,M,,*6A
$GPGGA,201105.00,4112.56183,N,07348.24986,W,1,05,2.16,163.0,M,-34.2,M,,*63
$GPGGA,201106.00,4112.56144,N,07348.24970,W,1,05,2.16,162.8,M,-34.2,M,,*6B
$GPGGA,201107.00,4112.56163,N,07348.24983,W,1,05,2.16,162.7,M,-34.2,M,,*6C
$GPGGA,201108.00,4112.56155,N,07348.24986,W,1,05,2.16,162.7,M,-34.2,M,,*63
$GPGGA,201109.00,4112.56147,N,07348.24987,W,1,05,2.16,162.7,M,-34.2,M,,*60
$GPGGA,201110.00,4112.56141,N,07348.24981,W,1,05,2.16,162.6,M,-34.2,M,,*69
$GPGGA,201111.00,4112.56121,N,07348.24968,W,1,05,2.16,162.5,M,-34.2,M,,*6A
$GPGGA,201112.00,4112.56115,N,07348.24971,W,1,05,2.16,162.4,M,-34.2,M,,*67
$GPGGA,201113.00,4112.56105,N,07348.24965,W,1,05,2.16,162.3,M,-34.2,M,,*65
$GPGGA,201114.00,4112.56092,N,07348.24961,W,1,05,2.16,162.2,M,-34.2,M,,*68
$GPGGA,201115.00,4112.56079,N,07348.24955,W,1,05,2.16,162.2,M,-34.2,M,,*6B
$GPGGA,201116.00,4112.56073,N,07348.24957,W,1,05,2.16,162.3,M,-34.2,M,,*61
$GPGGA,201117.00,4112.56089,N,07348.24981,W,1,05,2.16,162.5,M,-34.2,M,,*68
$GPGGA,201118.00,4112.56068,N,07348.24963,W,1,05,2.16,162.2,M,-34.2,M,,*63
$GPGGA,201119.00,4112.56066,N,07348.24967,W,1,05,2.16,162.0,M,-34.2,M,,*6A
$GPGGA,201120.00,4112.56057,N,07348.24961,W,1,05,2.16,161.8,M,-34.2,M,,*6F
$GPGGA,201121.00,4112.56056,N,07348.24961,W,1,05,2.16,161.7,M,-34.2,M,,*60
$GPGGA,201122.00,4112.56047,N,07348.24959,W,1,05,2.16,161.6,M,-34.2,M,,*69
$GPGGA,201123.00,4112.56040,N,07348.24954,W,1,05,2.16,161.4,M,-34.2,M,,*60
$GPGGA,201124.00,4112.56043,N,07348.24958,W,1,05,2.16,161.3,M,-34.2,M,,*6F
$GPGGA,201125.00,4112.56046,N,07348.24967,W,1,05,2.16,161.4,M,-34.2,M,,*60
$GPGGA,201126.00,4112.56049,N,07348.24975,W,1,05,2.16,161.5,M,-34.2,M,,*6E
$GPGGA,201127.00,4112.56055,N,07348.24973,W,1,05,2.16,161.4,M,-34.2,M,,*65
$GPGGA,201128.00,4112.56052,N,07348.24971,W,1,05,2.16,161.4,M,-34.2,M,,*6F
$GPGGA,201129.00,4112.56053,N,07348.24968,W,1,05,2.16,161.4,M,-34.2,M,,*67
$GPGGA,201130.00,4112.56066,N,07348.24973,W,1,05,2.16,160.9,M,-34.2,M,,*6F
$GPGGA,201131.00,4112.56067,N,07348.24974,W,1,05,2.16,160.8,M,-34.2,M,,*69
$GPGGA,201132.00,4112.56076,N,07348.24983,W,1,05,2.16,160.8,M,-34.2,M,,*62
$GPGGA,201133.00,4112.56072,N,07348.24979,W,1,05,2.16,160.8,M,-34.2,M,,*62
$GPGGA,201134.00,4112.56076,N,07348.24983,W,1,05,2.17,160.8,M,-34.2,M,,*65
$GPGGA,201135.00,4112.56078,N,07348.24992,W,1,05,2.17,160.9,M,-34.2,M,,*6B
$GPGGA,201136.00,4112.56074,N,07348.24991,W,1,05,2.17,160.8,M,-34.2,M,,*66
$GPGGA,201137.00,4112.56078,N,07348.24994,W,1,05,2.17,160.7,M,-34.2,M,,*61
$GPGGA,201138.00,4112.56086,N,07348.25001,W,1,05,2.17,160.6,M,-34.2,M,,*6A
$GPGGA,201139.00,4112.56093,N,07348.24998,W,1,05,2.17,160.5,M,-34.2,M,,*64
$GPGGA,201140.00,4112.56099,N,07348.25003,W,1,05,2.17,160.5,M,-34.2,M,,*6A
$GPGGA,201141.00,4112.56102,N,07348.25005,W,1,05,2.17,160.3,M,-34.2,M,,*68
$GPGGA,201142.00,4112.56107,N,07348.25004,W,1,05,2.17,160.2,M,-34.2,M,,*6E
$GPGGA,201143.00,4112.56115,N,07348.25005,W,1,05,2.17,160.1,M,-34.2,M,,*6E
$GPGGA,201144.00,4112.56123,N,07348.25008,W,1,05,2.17,160.1,M,-34.2,M,,*61
$GPGGA,201145.00,4112.56134,N,07348.25015,W,1,05,2.17,159.7,M,-34.2,M,,*66
$GPGGA,201146.00,4112.56147,N,07348.25018,W,1,05,2.17,159.5,M,-34.2,M,,*6E
$GPGGA,201147.00,4112.56146,N,07348.25017,W,1,05,2.17,159.4,M,-34.2,M,,*60
$GPGGA,201148.00,4112.56143,N,07348.25019,W,1,05,2.17,159.4,M,-34.2,M,,*64
$GPGGA,201149.00,4112.56141,N,07348.25027,W,1,05,2.17,159.3,M,-34.2,M,,*6D
$GPGGA,201150.00,4112.56138,N,07348.25025,W,1,05,2.17,159.4,M,-34.2,M,,*6E
$GPGGA,201151.00,4112.56137,N,07348.25027,W,1,05,2.17,159.2,M,-34.2,M,,*64
$GPGGA,201152.00,4112.56131,N,07348.25023,W,1,05,2.17,159.3,M,-34.2,M,,*64
$GPGGA,201153.00,4112.56170,N,07348.25053,W,1,05,2.17,159.1,M,-34.2,M,,*65
$GPGGA,201154.00,4112.56179,N,07348.25061,W,1,05,2.17,159.2,M,-34.2,M,,*69
$GPGGA,201155.00,4112.56185,N,07348.25059,W,1,05,2.17,159.0,M,-34.2,M,,*62
$GPGGA,201156.00,4112.56190,N,07348.25062,W,1,05,2.17,159.0,M,-34.2,M,,*6D
$GPGGA,201157.00,4112.56174,N,07348.25051,W,1,05,2.17,159.1,M,-34.2,M,,*67
$GPGGA,201158.00,4112.56154,N,07348.25037,W,1,05,2.17,159.1,M,-34.2,M,,*6A
$GPGGA,201159.00,4112.56154,N,07348.25037,W,1,05,2.17,159.0,M,-34.2,M,,*6A
$GPGGA,201200.00,4112.56141,N,07348.25029,W,1,05,2.17,159.0,M,-34.2,M,,*6E
$GPGGA,201201.00,4112.56156,N,07348.25038,W,1,05,2.17,159.0,M,-34.2,M,,*69
$GPGGA,201202.00,4112.56154,N,07348.25042,W,1,05,2.17,158.9,M,-34.2,M,,*6D
$GPGGA,201203.00,4112.56150,N,07348.25042,W,1,05,2.17,158.9,M,-34.2,M,,*68
$GPGGA,201204.00,4112.56150,N,07348.25043,W,1,05,2.17,158.7,M,-34.2,M,,*60
$GPGGA,201205.00,4112.56138,N,07348.25034,W,1,05,2.17,158.7,M,-34.2,M,,*6F
$GPGGA,201206.00,4112.56136,N,07348.25036,W,1,05,2.17,158.6,M,-34.2,M,,*61
$GPGGA,201207.00,4112.56121,N,07348.25032,W,1,05,2.17,158.7,M,-34.2,M,,*63
$GPGGA,201208.00,4112.56117,N,07348.25031,W,1,05,2.17,158.5,M,-34.2,M,,*68
$GPGGA,201209.00,4112.56096,N,07348.25023,W,1,05,2.17,158.6,M,-34.2,M,,*61
$GPGGA,201210.00,4112.56088,N,07348.25021,W,1,05,2.17,158.4,M,-34.2,M,,*66
$GPGGA,201211.00,4112.56080,N,07348.25017,W,1,05,2.17,158.3,M,-34.2,M,,*6D
$GPGGA,201212.00,4112.56075,N,07348.25017,W,1,05,2.17,158.2,M,-34.2,M,,*65
$GPGGA,201213.00,4112.56071,N,07348.25014,W,1,05,2.17,158.0,M,-34.2,M,,*61
$GPGGA,201214.00,4112.56061,N,07348.25011,W,1,05,2.17,157.8,M,-34.2,M,,*65
$GPGGA,201215.00,4112.56052,N,07348.25006,W,1,05,2.17,157.7,M,-34.2,M,,*6D
$GPGGA,201216.00,4112.56038,N,07348.24996,W,1,05,2.17,157.7,M,-34.2,M,,*63
$GPGGA,201217.00,4112.56037,N,07348.25002,W,1,05,2.18,157.7,M,-34.2,M,,*67
$GPGGA,201218.00,4112.56033,N,07348.25000,W,1,05,2.18,157.8,M,-34.2,M,,*61
$GPGGA,201219.00,4112.56028,N,07348.24999,W,1,05,2.18,157.6,M,-34.2,M,,*6C
$GPGGA,201220.00,4112.56021,N,07348.24994,W,1,05,2.18,157.4,M,-34.2,M,,*60
$GPGGA,201221.00,4112.55998,N,07348.24977,W,1,05,2.18,157.6,M,-34.2,M,,*66
$GPGGA,201222.00,4112.55983,N,07348.24969,W,1,05,2.18,157.6,M,-34.2,M,,*60
$GPGGA,201223.00,4112.55964,N,07348.24962,W,1,05,2.18,157.9,M,-34.2,M,,*6C
$GPGGA,201224.00,4112.55957,N,07348.24960,W,1,05,2.18,157.9,M,-34.2,M,,*69
$GPGGA,201225.00,4112.55949,N,07348.24954,W,1,05,2.18,157.9,M,-34.2,M,,*60
$GPGGA,201226.00,4112.55951,N,07348.24952,W,1,05,2.18,157.8,M,-34.2,M,,*6D
$GPGGA,201227.00,4112.55948,N,07348.24949,W,1,05,2.18,157.7,M,-34.2,M,,*61
$GPGGA,201228.00,4112.55946,N,07348.24942,W,1,05,2.18,157.5,M,-34.2,M,,*69
$GPGGA,201229.00,4112.55954,N,07348.24944,W,1,05,2.18,157.4,M,-34.2,M,,*6C
$GPGGA,201230.00,4112.55962,N,07348.24946,W,1,05,2.18,157.4,M,-34.2,M,,*63
$GPGGA,201231.00,4112.55950,N,07348.24937,W,1,05,2.18,157.5,M,-34.2,M,,*64
$GPGGA,201232.00,4112.55950,N,07348.24933,W,1,05,2.18,157.7,M,-34.2,M,,*61
$GPGGA,201233.00,4112.55951,N,07348.24930,W,1,05,2.18,157.6,M,-34.2,M,,*63
$GPGGA,201234.00,4112.55953,N,07348.24930,W,1,05,2.18,157.7,M,-34.2,M,,*67
$GPGGA,201235.00,4112.55966,N,07348.24936,W,1,05,2.18,157.7,M,-34.2,M,,*66
$GPGGA,201236.00,4112.55961,N,07348.24928,W,1,05,2.18,157.8,M,-34.2,M,,*62
$GPGGA,201237.00,4112.55945,N,07348.24919,W,1,05,2.18,158.0,M,-34.2,M,,*60
$GPGGA,201238.00,4112.55942,N,07348.24913,W,1,05,2.18,158.2,M,-34.2,M,,*60
$GPGGA,201239.00,4112.55934,N,07348.24900,W,1,05,2.18,158.2,M,-34.2,M,,*62
$GPGGA,201240.00,4112.55933,N,07348.24892,W,1,05,2.18,158.3,M,-34.2,M,,*60
$GPGGA,201241.00,4112.55917,N,07348.24874,W,1,05,2.18,158.6,M,-34.2,M,,*6A
$GPGGA,201242.00,4112.55916,N,07348.24868,W,1,05,2.18,158.7,M,-34.2,M,,*64
$GPGGA,201243.00,4112.55907,N,07348.24857,W,1,05,2.18,158.9,M,-34.2,M,,*67
$GPGGA,201244.00,4112.55900,N,07348.24856,W,1,05,2.18,159.2,M,-34.2,M,,*6C
$GPGGA,201245.00,4112.55882,N,07348.24847,W,1,05,2.18,159.5,M,-34.2,M,,*61
$GPGGA,201246.00,4112.55887,N,07348.24853,W,1,05,2.18,159.6,M,-34.2,M,,*61
$GPGGA,201247.00,4112.55891,N,07348.24852,W,1,05,2.18,159.7,M,-34.2,M,,*67
$GPGGA,201248.00,4112.55875,N,07348.24844,W,1,05,2.18,160.0,M,-34.2,M,,*68
$GPGGA,201249.00,4112.55869,N,07348.24837,W,1,05,2.18,160.3,M,-34.2,M,,*63
$GPGGA,201250.00,4112.55872,N,07348.24834,W,1,05,2.18,160.5,M,-34.2,M,,*64
$GPGGA,201251.00,4112.55870,N,07348.24829,W,1,05,2.18,160.6,M,-34.2,M,,*68
$GPGGA,201252.00,4112.55867,N,07348.24824,W,1,05,2.18,160.7,M,-34.2,M,,*61
$GPGGA,201253.00,4112.55848,N,07348.24814,W,1,05,2.18,161.0,M,-34.2,M,,*68
$GPGGA,201254.00,4112.55849,N,07348.24814,W,1,05,2.18,161.3,M,-34.2,M,,*6D
$GPGGA,201255.00,4112.55840,N,07348.24806,W,1,05,2.18,161.5,M,-34.2,M,,*60
$GPGGA,201256.00,4112.55835,N,07348.24802,W,1,05,2.18,161.6,M,-34.2,M,,*66
$GPGGA,201257.00,4112.55857,N,07348.24817,W,1,05,2.18,161.6,M,-34.2,M,,*67
$GPGGA,201258.00,4112.55859,N,07348.24819,W,1,05,2.18,161.5,M,-34.2,M,,*6B
$GPGGA,201259.00,4112.55856,N,07348.24817,W,1,05,2.19,161.4,M,-34.2,M,,*6B
$GPGGA,201300.00,4112.55850,N,07348.24810,W,1,05,2.19,161.4,M,-34.2,M,,*67
$GPGGA,201301.00,4112.55849,N,07348.24805,W,1,05,2.19,161.4,M,-34.2,M,,*6A
$GPGGA,201302.00,4112.55848,N,07348.24803,W,1,05,2.19,161.4,M,-34.2,M,,*6E
$GPGGA,201303.00,4112.55845,N,07348.24800,W,1,05,2.19,161.6,M,-34.2,M,,*63
$GPGGA,201304.00,4112.55839,N,07348.24794,W,1,05,2.19,161.8,M,-34.2,M,,*63
$GPGGA,201305.00,4112.55832,N,07348.24790,W,1,05,2.19,161.9,M,-34.2,M,,*6C
$GPGGA,201306.00,4112.55835,N,07348.24791,W,1,05,2.19,162.0,M,-34.2,M,,*63
$GPGGA,201307.00,4112.55844,N,07348.24795,W,1,05,2.19,162.0,M,-34.2,M,,*60
$GPGGA,201308.00,4112.55861,N,07348.24805,W,1,05,2.19,161.8,M,-34.2,M,,*65
$GPGGA,201309.00,4112.55868,N,07348.24812,W,1,05,2.19,161.7,M,-34.2,M,,*64
$GPGGA,201310.00,4112.55887,N,07348.24828,W,1,05,2.19,161.7,M,-34.2,M,,*64
$GPGGA,201311.00,4112.55887,N,07348.24824,W,1,05,2.19,161.5,M,-34.2,M,,*6B
$GPGGA,201312.00,4112.55893,N,07348.24828,W,1,05,2.19,161.2,M,-34.2,M,,*66
$GPGGA,201313.00,4112.55914,N,07348.24840,W,1,05,2.19,160.9,M,-34.2,M,,*6D
$GPGGA,201314.00,4112.55918,N,07348.24843,W,1,05,2.19,160.8,M,-34.2,M,,*64
$GPGGA,201315.00,4112.55921,N,07348.24851,W,1,05,2.19,160.8,M,-34.2,M,,*6C
$GPGGA,201316.00,4112.55922,N,07348.24856,W,1,05,2.19,160.8,M,-34.2,M,,*6B
$GPGGA,201317.00,4112.55927,N,07348.24859,W,1,05,2.19,160.9,M,-34.2,M,,*61
$GPGGA,201318.00,4112.55933,N,07348.24858,W,1,05,2.19,161.1,M,-34.2,M,,*63
$GPGGA,201319.00,4112.55923,N,07348.24846,W,1,05,2.19,161.3,M,-34.2,M,,*6E
$GPGGA,201320.00,4112.55930,N,07348.24849,W,1,05,2.19,161.2,M,-34.2,M,,*68
$GPGGA,201321.00,4112.55932,N,07348.24848,W,1,05,2.19,161.1,M,-34.2,M,,*69
$GPGGA,201322.00,4112.55947,N,07348.24867,W,1,05,2.19,161.4,M,-34.2,M,,*60
$GPGGA,201323.00,4112.55953,N,07348.24873,W,1,05,2.19,161.4,M,-34.2,M,,*61
$GPGGA,201324.00,4112.55946,N,07348.24861,W,1,05,2.19,161.4,M,-34.2,M,,*61
$GPGGA,201325.00,4112.55959,N,07348.24869,W,1,05,2.19,161.3,M,-34.2,M,,*61
$GPGGA,201326.00,4112.55969,N,07348.24874,W,1,05,2.19,161.1,M,-34.2,M,,*6F
$GPGGA,201327.00,4112.55952,N,07348.24870,W,1,05,2.19,161.4,M,-34.2,M,,*67
$GPGGA,201328.00,4112.55960,N,07348.24880,W,1,05,2.19,161.2,M,-34.2,M,,*60
$GPGGA,201329.00,4112.55959,N,07348.24881,W,1,05,2.19,161.3,M,-34.2,M,,*6B
$GPGGA,201330.00,4112.55947,N,07348.24872,W,1,05,2.19,161.4,M,-34.2,M,,*67
$GPGGA,201331.00,4112.55949,N,07348.24871,W,1,05,2.19,161.5,M,-34.2,M,,*6A
$GPGGA,201332.00,4112.55959,N,07348.24879,W,1,05,2.19,161.6,M,-34.2,M,,*63
$GPGGA,201333.00,4112.55960,N,07348.24877,W,1,05,2.19,161.4,M,-34.2,M,,*64
$GPGGA,201334.00,4112.55965,N,07348.24879,W,1,05,2.19,161.4,M,-34.2,M,,*68
$GPGGA,201335.00,4112.55950,N,07348.24870,W,1,05,2.19,161.4,M,-34.2,M,,*66
$GPGGA,201336.00,4112.55958,N,07348.24869,W,1,05,2.19,161.4,M,-34.2,M,,*65
$GPGGA,201337.00,4112.55960,N,07348.24873,W,1,05,2.19,161.2,M,-34.2,M,,*62
$GPGGA,201338.00,4112.55964,N,07348.24874,W,1,05,2.19,161.2,M,-34.2,M,,*6E
$GPGGA,201339.00,4112.55968,N,07348.24865,W,1,05,2.20,161.4,M,-34.2,M,,*6F
$GPGGA,201340.00,4112.55964,N,07348.24863,W,1,05,2.20,161.5,M,-34.2,M,,*6A
$GPGGA,201341.00,4112.55965,N,07348.24860,W,1,05,2.20,161.8,M,-34.2,M,,*64
$GPGGA,201342.00,4112.55966,N,07348.24859,W,1,05,2.20,162.0,M,-34.2,M,,*65
$GPGGA,201343.00,4112.55974,N,07348.24864,W,1,05,2.20,162.1,M,-34.2,M,,*68
$GPGGA,201344.00,4112.55960,N,07348.24848,W,1,05,2.20,162.1,M,-34.2,M,,*64
$GPGGA,201345.00,4112.55955,N,07348.24843,W,1,05,2.20,162.3,M,-34.2,M,,*6A
$GPGGA,201346.00,4112.55937,N,07348.24830,W,1,05,2.20,162.4,M,-34.2,M,,*6E
$GPGGA,201347.00,4112.55937,N,07348.24826,W,1,05,2.20,162.5,M,-34.2,M,,*69
$GPGGA,201348.00,4112.55942,N,07348.24822,W,1,05,2.20,162.6,M,-34.2,M,,*63
$GPGGA,201349.00,4112.55930,N,07348.24807,W,1,05,2.20,162.5,M,-34.2,M,,*63
$GPGGA,201350.00,4112.55908,N,07348.24797,W,1,05,2.20,162.8,M,-34.2,M,,*6B
$GPGGA,201351.00,4112.55911,N,07348.24799,W,1,05,2.20,162.8,M,-34.2,M,,*6C
$GPGGA,201352.00,4112.55908,N,07348.24799,W,1,05,2.20,163.0,M,-34.2,M,,*6E
$GPGGA,201353.00,4112.55909,N,07348.24801,W,1,05,2.20,163.0,M,-34.2,M,,*60
$GPGGA,201354.00,4112.55914,N,07348.24808,W,1,05,2.20,163.2,M,-34.2,M,,*60
$GPGGA,201355.00,4112.55929,N,07348.24815,W,1,05,2.20,163.2,M,-34.2,M,,*63
$GPGGA,201356.00,4112.55942,N,07348.24819,W,1,05,2.20,163.0,M,-34.2,M,,*63
$GPGGA,201357.00,4112.55935,N,07348.24816,W,1,05,2.20,163.1,M,-34.2,M,,*6C
$GPGGA,201358.00,4112.55937,N,07348.24815,W,1,05,2.20,163.1,M,-34.2,M,,*62
$GPGGA,201359.00,4112.55928,N,07348.24812,W,1,05,2.20,163.2,M,-34.2,M,,*69
$GPGGA,201400.00,4112.55928,N,07348.24813,W,1,05,2.20,163.2,M,-34.2,M,,*63
$GPGGA,201401.00,4112.55930,N,07348.24814,W,1,05,2.20,163.3,M,-34.2,M,,*6D
$GPGGA,201402.00,4112.55924,N,07348.24813,W,1,05,2.20,163.4,M,-34.2,M,,*6B
$GPGGA,201403.00,4112.55936,N,07348.24821,W,1,05,2.20,163.3,M,-34.2,M,,*6F
$GPGGA,201404.00,4112.55930,N,07348.24816,W,1,05,2.20,163.5,M,-34.2,M,,*6C
$GPGGA,201405.00,4112.55934,N,07348.24820,W,1,05,2.20,163.6,M,-34.2,M,,*6F
$GPGGA,201406.00,4112.55934,N,07348.24817,W,1,05,2.20,163.7,M,-34.2,M,,*69
$GPGGA,201407.00,4112.55931,N,07348.24812,W,1,05,2.20,163.8,M,-34.2,M,,*67
$GPGGA,201408.00,4112.55936,N,07348.24813,W,1,05,2.20,163.7,M,-34.2,M,,*61
$GPGGA,201409.00,4112.55938,N,07348.24817,W,1,05,2.20,163.8,M,-34.2,M,,*65
$GPGGA,201410.00,4112.55929,N,07348.24802,W,1,05,2.20,163.6,M,-34.2,M,,*67
$GPGGA,201411.00,4112.55943,N,07348.24807,W,1,05,2.20,163.6,M,-34.2,M,,*6F
$GPGGA,201412.00,4112.55934,N,07348.24797,W,1,05,2.20,163.9,M,-34.2,M,,*65
$GPGGA,201413.00,4112.55942,N,07348.24798,W,1,05,2.20,163.7,M,-34.2,M,,*64
$GPGGA,201414.00,4112.55951,N,07348.24803,W,1,05,2.20,163.8,M,-34.2,M,,*63
$GPGGA,201415.00,4112.55971,N,07348.24810,W,1,05,2.20,163.6,M,-34.2,M,,*6C
$GPGGA,201416.00,4112.55954,N,07348.24794,W,1,05,2.20,163.6,M,-34.2,M,,*6B
$GPGGA,201417.00,4112.55942,N,07348.24785,W,1,05,2.20,163.6,M,-34.2,M,,*6D
$GPGGA,201418.00,4112.55935,N,07348.24778,W,1,05,2.20,163.7,M,-34.2,M,,*61
$GPGGA,201419.00,4112.55950,N,07348.24793,W,1,05,2.21,163.7,M,-34.2,M,,*67
$GPGGA,201420.00,4112.55967,N,07348.24805,W,1,05,2.21,163.6,M,-34.2,M,,*68
$GPGGA,201421.00,4112.55981,N,07348.24814,W,1,05,2.21,163.4,M,-34.2,M,,*63
$GPGGA,201422.00,4112.55996,N,07348.24825,W,1,05,2.21,163.4,M,-34.2,M,,*64
$GPGGA,201423.00,4112.56008,N,07348.24842,W,1,05,2.21,163.4,M,-34.2,M,,*69
$GPGGA,201424.00,4112.56012,N,07348.24850,W,1,05,2.21,163.6,M,-34.2,M,,*64
$GPGGA,201425.00,4112.56007,N,07348.24857,W,1,05,2.21,163.7,M,-34.2,M,,*67
$GPGGA,201426.00,4112.56005,N,07348.24859,W,1,05,2.21,163.7,M,-34.2,M,,*68
$GPGGA,201427.00,4112.56005,N,07348.24865,W,1,05,2.21,163.8,M,-34.2,M,,*69
$GPGGA,201428.00,4112.55996,N,07348.24865,W,1,05,2.21,163.9,M,-34.2,M,,*67
$GPGGA,201429.00,4112.55994,N,07348.24868,W,1,05,2.21,163.9,M,-34.2,M,,*69
$GPGGA,201430.00,4112.56001,N,07348.24871,W,1,05,2.21,163.7,M,-34.2,M,,*61
$GPGGA,201431.00,4112.55992,N,07348.24858,W,1,05,2.21,163.7,M,-34.2,M,,*6B
$GPGGA,201432.00,4112.55995,N,07348.24859,W,1,05,2.21,163.7,M,-34.2,M,,*6E
$GPGGA,201433.00,4112.56005,N,07348.24867,W,1,05,2.21,163.7,M,-34.2,M,,*61
$GPGGA,201434.00,4112.55990,N,07348.24857,W,1,05,2.21,163.8,M,-34.2,M,,*6C
$GPGGA,201435.00,4112.55981,N,07348.24849,W,1,05,2.21,163.8,M,-34.2,M,,*62
$GPGGA,201436.00,4112.55973,N,07348.24839,W,1,05,2.21,163.9,M,-34.2,M,,*6A
$GPGGA,201437.00,4112.55972,N,07348.24839,W,1,05,2.21,164.0,M,-34.2,M,,*64
$GPGGA,201438.00,4112.55968,N,07348.24835,W,1,05,2.21,164.1,M,-34.2,M,,*6D
$GPGGA,201439.00,4112.55948,N,07348.24826,W,1,05,2.21,164.3,M,-34.2,M,,*6E
$GPGGA,201440.00,4112.55941,N,07348.24822,W,1,05,2.21,164.3,M,-34.2,M,,*6D
$GPGGA,201441.00,4112.55924,N,07348.24821,W,1,05,2.21,164.7,M,-34.2,M,,*68
$GPGGA,201442.00,4112.55928,N,07348.24827,W,1,05,2.21,164.9,M,-34.2,M,,*6F
$GPGGA,201443.00,4112.55919,N,07348.24827,W,1,05,2.21,165.1,M,-34.2,M,,*65
$GPGGA,201444.00,4112.55919,N,07348.24831,W,1,05,2.21,165.2,M,-34.2,M,,*66
$GPGGA,201445.00,4112.55928,N,07348.24841,W,1,05,2.21,165.3,M,-34.2,M,,*63
$GPGGA,201446.00,4112.55912,N,07348.24842,W,1,05,2.21,165.7,M,-34.2,M,,*6E
$GPGGA,201447.00,4112.55900,N,07348.24840,W,1,05,2.21,165.9,M,-34.2,M,,*60
$GPGGA,201448.00,4112.55883,N,07348.24831,W,1,05,2.21,165.9,M,-34.2,M,,*63
$GPGGA,201449.00,4112.55884,N,07348.24836,W,1,05,2.21,166.1,M,-34.2,M,,*69
$GPGGA,201450.00,4112.55881,N,07348.24837,W,1,05,2.21,166.4,M,-34.2,M,,*60
$GPGGA,201451.00,4112.55885,N,07348.24843,W,1,05,2.21,166.6,M,-34.2,M,,*64
$GPGGA,201452.00,4112.55886,N,07348.24845,W,1,05,2.21,166.6,M,-34.2,M,,*62
$GPGGA,201453.00,4112.55890,N,07348.24850,W,1,05,2.21,166.4,M,-34.2,M,,*62
$GPGGA,201454.00,4112.55891,N,07348.24852,W,1,05,2.21,166.4,M,-34.2,M,,*66
$GPGGA,201455.00,4112.55877,N,07348.24846,W,1,05,2.21,166.5,M,-34.2,M,,*6B
$GPGGA,201456.00,4112.55891,N,07348.24857,W,1,05,2.21,166.6,M,-34.2,M,,*63
$GPGGA,201457.00,4112.55897,N,07348.24862,W,1,05,2.22,166.4,M,-34.2,M,,*63
$GPGGA,201458.00,4112.55910,N,07348.24874,W,1,05,2.22,166.3,M,-34.2,M,,*62
$GPGGA,201459.00,4112.55922,N,07348.24886,W,1,05,2.22,166.3,M,-34.2,M,,*6F
$GPGGA,201500.00,4112.55941,N,07348.24898,W,1,05,2.22,166.2,M,-34.2,M,,*69
$GPGGA,201501.00,4112.55949,N,07348.24903,W,1,05,2.22,166.0,M,-34.2,M,,*61
$GPGGA,201502.00,4112.55967,N,07348.24917,W,1,05,2.22,165.8,M,-34.2,M,,*60
$GPGGA,201503.00,4112.55967,N,07348.24930,W,1,05,2.22,166.0,M,-34.2,M,,*6F
$GPGGA,201504.00,4112.55970,N,07348.24940,W,1,05,2.22,166.2,M,-34.2,M,,*6B
$GPGGA,201505.00,4112.55984,N,07348.24955,W,1,05,2.22,166.4,M,-34.2,M,,*63
$GPGGA,201506.00,4112.55995,N,07348.24960,W,1,05,2.22,166.3,M,-34.2,M,,*61
$GPGGA,201507.00,4112.55986,N,07348.24958,W,1,05,2.22,166.5,M,-34.2,M,,*6F
$GPGGA,201508.00,4112.55964,N,07348.24948,W,1,05,2.22,166.7,M,-34.2,M,,*6F
$GPGGA,201509.00,4112.55968,N,07348.24953,W,1,05,2.22,166.3,M,-34.2,M,,*6C
$GPGGA,201510.00,4112.55976,N,07348.24957,W,1,05,2.22,166.2,M,-34.2,M,,*6E
$GPGGA,201511.00,4112.55968,N,07348.24952,W,1,05,2.22,166.1,M,-34.2,M,,*66
$GPGGA,201512.00,4112.55961,N,07348.24953,W,1,05,2.22,166.1,M,-34.2,M,,*6D
$GPGGA,201513.00,4112.55944,N,07348.24947,W,1,05,2.22,166.3,M,-34.2,M,,*6C
$GPGGA,201514.00,4112.55937,N,07348.24954,W,1,05,2.22,166.5,M,-34.2,M,,*6B
$GPGGA,201515.00,4112.55903,N,07348.24938,W,1,05,2.22,166.6,M,-34.2,M,,*64
$GPGGA,201516.00,4112.55902,N,07348.24939,W,1,05,2.22,166.6,M,-34.2,M,,*67
$GPGGA,201517.00,4112.55910,N,07348.24944,W,1,05,2.22,166.5,M,-34.2,M,,*6C
$GPGGA,201518.00,4112.55919,N,07348.24946,W,1,05,2.22,166.3,M,-34.2,M,,*6E
$GPGGA,201519.00,4112.55921,N,07348.24946,W,1,05,2.22,166.2,M,-34.2,M,,*65
$GPGGA,201520.00,4112.55934,N,07348.24951,W,1,05,2.22,166.0,M,-34.2,M,,*6F
$GPGGA,201521.00,4112.55957,N,07348.24969,W,1,05,2.22,165.9,M,-34.2,M,,*6A
$GPGGA,201522.00,4112.55977,N,07348.24983,W,1,05,2.22,165.9,M,-34.2,M,,*6F
$GPGGA,201523.00,4112.55975,N,07348.24981,W,1,05,2.22,165.9,M,-34.2,M,,*6E
$GPGGA,201524.00,4112.55967,N,07348.24973,W,1,05,2.22,165.9,M,-34.2,M,,*67
$GPGGA,201525.00,4112.55989,N,07348.24986,W,1,05,2.22,165.7,M,-34.2,M,,*62
$GPGGA,201526.00,4112.56008,N,07348.25001,W,1,05,2.22,165.5,M,-34.2,M,,*67
$GPGGA,201527.00,4112.56026,N,07348.25008,W,1,05,2.22,165.3,M,-34.2,M,,*65
$GPGGA,201528.00,4112.56030,N,07348.25007,W,1,05,2.22,165.1,M,-34.2,M,,*60
$GPGGA,201529.00,4112.56034,N,07348.25006,W,1,05,2.22,164.8,M,-34.2,M,,*6C
$GPGGA,201530.00,4112.56048,N,07348.25015,W,1,05,2.22,164.6,M,-34.2,M,,*63
$GPGGA,201531.00,4112.56062,N,07348.25023,W,1,05,2.22,164.2,M,-34.2,M,,*6B
$GPGGA,201532.00,4112.56057,N,07348.25020,W,1,05,2.22,164.1,M,-34.2,M,,*6E
$GPGGA,201533.00,4112.56074,N,07348.25030,W,1,05,2.22,163.9,M,-34.2,M,,*60
$GPGGA,201534.00,4112.56073,N,07348.25028,W,1,05,2.23,163.9,M,-34.2,M,,*68
$GPGGA,201535.00,4112.56083,N,07348.25034,W,1,05,2.23,163.8,M,-34.2,M,,*6A
$GPGGA,201536.00,4112.56087,N,07348.25040,W,1,05,2.23,163.7,M,-34.2,M,,*61
$GPGGA,201537.00,4112.56082,N,07348.25035,W,1,05,2.23,163.8,M,-34.2,M,,*68
$GPGGA,201538.00,4112.56080,N,07348.25031,W,1,05,2.23,163.8,M,-34.2,M,,*61
$GPGGA,201539.00,4112.56066,N,07348.25021,W,1,05,2.23,163.9,M,-34.2,M,,*68
$GPGGA,201540.00,4112.56071,N,07348.25022,W,1,05,2.23,163.8,M,-34.2,M,,*62
$GPGGA,201541.00,4112.56103,N,07348.25041,W,1,05,2.23,163.6,M,-34.2,M,,*6C
$GPGGA,201542.00,4112.56123,N,07348.25053,W,1,05,2.23,163.5,M,-34.2,M,,*6D
$GPGGA,201543.00,4112.56132,N,07348.25061,W,1,05,2.23,163.4,M,-34.2,M,,*6C
$GPGGA,201544.00,4112.56145,N,07348.25068,W,1,05,2.23,163.3,M,-34.2,M,,*65
$GPGGA,201545.00,4112.56143,N,07348.25066,W,1,05,2.23,163.2,M,-34.2,M,,*6D
$GPGGA,201546.00,4112.56132,N,07348.25058,W,1,05,2.23,163.1,M,-34.2,M,,*66
$GPGGA,201547.00,4112.56140,N,07348.25061,W,1,05,2.23,163.0,M,-34.2,M,,*69
$GPGGA,201548.00,4112.56153,N,07348.25072,W,1,05,2.23,163.0,M,-34.2,M,,*66
$GPGGA,201549.00,4112.56165,N,07348.25077,W,1,05,2.23,162.9,M,-34.2,M,,*6F
$GPGGA,201550.00,4112.56148,N,07348.25057,W,1,05,2.23,162.7,M,-34.2,M,,*64
$GPGGA,201551.00,4112.56155,N,07348.25060,W,1,05,2.23,162.6,M,-34.2,M,,*6C
$GPGGA,201552.00,4112.56164,N,07348.25056,W,1,05,2.23,162.2,M,-34.2,M,,*6C
$GPGGA,201553.00,4112.56183,N,07348.25069,W,1,05,2.23,162.2,M,-34.2,M,,*68
$GPGGA,201554.00,4112.56200,N,07348.25085,W,1,05,2.23,162.1,M,-34.2,M,,*66
$GPGGA,201555.00,4112.56217,N,07348.25102,W,1,05,2.23,162.0,M,-34.2,M,,*6E
$GPGGA,201556.00,4112.56224,N,07348.25104,W,1,05,2.23,161.7,M,-34.2,M,,*6F
$GPGGA,201557.00,4112.56221,N,07348.25099,W,1,05,2.23,161.7,M,-34.2,M,,*6E
$GPGGA,201558.00,4112.56216,N,07348.25084,W,1,05,2.23,161.4,M,-34.2,M,,*6A
$GPGGA,201559.00,4112.56211,N,07348.25063,W,1,05,2.23,161.2,M,-34.2,M,,*63
$GPGGA,201600.00,4112.56192,N,07348.25035,W,1,05,2.23,160.9,M,-34.2,M,,*6D
$GPGGA,201601.00,4112.56182,N,07348.25021,W,1,05,2.23,160.9,M,-34.2,M,,*68
$GPGGA,201602.00,4112.56166,N,07348.24996,W,1,05,2.23,160.8,M,-34.2,M,,*64
$GPGGA,201603.00,4112.56155,N,07348.24972,W,1,05,2.23,160.8,M,-34.2,M,,*6F
$GPGGA,201604.00,4112.56182,N,07348.25002,W,1,05,2.23,160.9,M,-34.2,M,,*6C
$GPGGA,201605.00,4112.56206,N,07348.25024,W,1,05,2.23,160.8,M,-34.2,M,,*67
$GPGGA,201606.00,4112.56207,N,07348.25032,W,1,05,2.23,161.1,M,-34.2,M,,*6A
$GPGGA,201607.00,4112.56188,N,07348.25007,W,1,05,2.23,161.1,M,-34.2,M,,*69
$GPGGA,201608.00,4112.56203,N,07348.25021,W,1,05,2.23,161.2,M,-34.2,M,,*61
$GPGGA,201609.00,4112.56219,N,07348.25041,W,1,05,2.23,161.2,M,-34.2,M,,*6D
$GPGGA,201610.00,4112.56223,N,07348.25051,W,1,05,2.23,161.3,M,-34.2,