$GPGGA,024609.00,4116.83755,N,07353.03826,W,1,09,1.09,133.3,M,-34.2,M,,*6F
$GPGGA,024610.00,4116.83724,N,07353.03833,W,1,09,1.09,134.0,M,-34.2,M,,*61
$GPGGA,024611.00,4116.83724,N,07353.03817,W,1,09,1.09,134.4,M,-34.2,M,,*62
$GPGGA,024612.00,4116.83704,N,07353.03812,W,1,09,1.09,135.0,M,-34.2,M,,*63
$GPGGA,024613.00,4116.83704,N,07353.03806,W,1,09,1.09,135.1,M,-34.2,M,,*66
$GPGGA,024614.00,4116.83708,N,07353.03795,W,1,09,1.09,135.3,M,-34.2,M,,*6A
$GPGGA,024615.00,4116.83693,N,07353.03799,W,1,09,1.09,135.6,M,-34.2,M,,*61
$GPGGA,024616.00,4116.83697,N,07353.03794,W,1,09,1.09,135.8,M,-34.2,M,,*65
$GPGGA,024617.00,4116.83689,N,07353.03796,W,1,09,1.09,136.0,M,-34.2,M,,*62
$GPGGA,024618.00,4116.83679,N,07353.03788,W,1,09,1.09,136.6,M,-34.2,M,,*6B
$GPGGA,024619.00,4116.83681,N,07353.03784,W,1,09,1.09,136.7,M,-34.2,M,,*60
$GPGGA,024620.00,4116.83678,N,07353.03785,W,1,09,1.09,137.0,M,-34.2,M,,*6B
$GPGGA,024621.00,4116.83684,N,07353.03761,W,1,09,1.09,137.3,M,-34.2,M,,*60
$GPGGA,024622.00,4116.83687,N,07353.03745,W,1,09,1.09,137.7,M,-34.2,M,,*62
$GPGGA,024623.00,4116.83672,N,07353.03734,W,1,09,1.09,138.1,M,-34.2,M,,*66
$GPGGA,024624.00,4116.83672,N,07353.03720,W,1,09,1.09,138.4,M,-34.2,M,,*61
$GPGGA,024625.00,4116.83666,N,07353.03727,W,1,09,1.09,138.5,M,-34.2,M,,*63
$GPGGA,024626.00,4116.83647,N,07353.03735,W,1,09,1.09,138.7,M,-34.2,M,,*62
$GPGGA,024627.00,4116.83651,N,07353.03734,W,1,08,1.36,138.8,M,-34.2,M,,*67
$GPGGA,024628.00,4116.83641,N,07353.03743,W,1,08,1.36,138.9,M,-34.2,M,,*68
$GPGGA,024629.00,4116.83649,N,07353.03730,W,1,08,1.36,138.9,M,-34.2,M,,*65
$GPGGA,024630.00,4116.83643,N,07353.03726,W,1,08,1.36,139.1,M,-34.2,M,,*69
$GPGGA,024631.00,4116.83638,N,07353.03722,W,1,08,1.36,139.3,M,-34.2,M,,*62
$GPGGA,024632.00,4116.83615,N,07353.03718,W,1,08,1.36,139.8,M,-34.2,M,,*6C
$GPGGA,024633.00,4116.83604,N,07353.03714,W,1,08,1.36,140.0,M,-34.2,M,,*67
$GPGGA,024634.00,4116.83584,N,07353.03715,W,1,08,1.36,140.3,M,-34.2,M,,*69
$GPGGA,024635.00,4116.83572,N,07353.03717,W,1,07,1.95,140.4,M,-34.2,M,,*62
$GPGGA,024636.00,4116.83556,N,07353.03720,W,1,07,1.95,140.6,M,-34.2,M,,*61
$GPGGA,024637.00,4116.83528,N,07353.03744,W,1,08,1.36,140.5,M,-34.2,M,,*6E
$GPGGA,024638.00,4116.83503,N,07353.03761,W,1,07,1.39,140.6,M,-34.2,M,,*6C
$GPGGA,024639.00,4116.83481,N,07353.03775,W,1,07,1.39,140.7,M,-34.2,M,,*62
$GPGGA,024640.00,4116.83445,N,07353.03791,W,1,07,1.39,140.8,M,-34.2,M,,*61
$GPGGA,024641.00,4116.83429,N,07353.03817,W,1,07,1.40,140.5,M,-34.2,M,,*68
$GPGGA,024642.00,4116.83415,N,07353.03831,W,1,07,1.40,140.4,M,-34.2,M,,*61
$GPGGA,024643.00,4116.83398,N,07353.03859,W,1,07,1.40,139.9,M,-34.2,M,,*6F
$GPGGA,024644.00,4116.83377,N,07353.03876,W,1,07,1.40,139.9,M,-34.2,M,,*64
$GPGGA,024645.00,4116.83348,N,07353.03898,W,1,08,1.13,140.0,M,-34.2,M,,*67
$GPGGA,024646.00,4116.83327,N,07353.03917,W,1,08,1.13,140.0,M,-34.2,M,,*6B
$GPGGA,024647.00,4116.83308,N,07353.03943,W,1,09,1.09,139.9,M,-34.2,M,,*6B
$GPGGA,024648.00,4116.83298,N,07353.03964,W,1,09,1.09,139.8,M,-34.2,M,,*68
$GPGGA,024649.00,4116.83285,N,07353.03995,W,1,09,1.09,139.4,M,-34.2,M,,*67
$GPGGA,024650.00,4116.83276,N,07353.04015,W,1,09,1.09,139.1,M,-34.2,M,,*60
$GPGGA,024651.00,4116.83268,N,07353.04022,W,1,09,1.09,139.2,M,-34.2,M,,*69
$GPGGA,024652.00,4116.83251,N,07353.04033,W,1,09,1.09,139.2,M,-34.2,M,,*60
$GPGGA,024653.00,4116.83240,N,07353.04042,W,1,09,1.09,139.3,M,-34.2,M,,*66
$GPGGA,024654.00,4116.83235,N,07353.04052,W,1,09,1.09,139.2,M,-34.2,M,,*63
$GPGGA,024655.00,4116.83232,N,07353.04054,W,1,09,1.09,139.2,M,-34.2,M,,*63
$GPGGA,024656.00,4116.83231,N,07353.04049,W,1,09,1.09,139.4,M,-34.2,M,,*69
$GPGGA,024657.00,4116.83225,N,07353.04039,W,1,09,1.09,139.7,M,-34.2,M,,*69
$GPGGA,024658.00,4116.83217,N,07353.04034,W,1,09,1.09,140.1,M,-34.2,M,,*62
$GPGGA,024659.00,4116.83208,N,07353.04024,W,1,09,1.09,140.5,M,-34.2,M,,*68
$GPGGA,024700.00,4116.83211,N,07353.04028,W,1,09,1.09,140.4,M,-34.2,M,,*60
$GPGGA,024701.00,4116.83214,N,07353.04036,W,1,09,1.09,140.3,M,-34.2,M,,*6C
$GPGGA,024702.00,4116.83226,N,07353.04045,W,1,08,1.35,139.8,M,-34.2,M,,*61
$GPGGA,024703.00,4116.83224,N,07353.04049,W,1,08,1.35,139.8,M,-34.2,M,,*6E
$GPGGA,024704.00,4116.83209,N,07353.04045,W,1,08,1.35,140.4,M,-34.2,M,,*68
$GPGGA,024705.00,4116.83196,N,07353.04044,W,1,08,1.35,140.7,M,-34.2,M,,*6E
$GPGGA,024706.00,4116.83191,N,07353.04052,W,1,08,1.35,140.7,M,-34.2,M,,*6D
$GPGGA,024707.00,4116.83194,N,07353.04060,W,1,08,1.35,140.4,M,-34.2,M,,*6B
$GPGGA,024708.00,4116.83202,N,07353.04074,W,1,08,1.35,139.6,M,-34.2,M,,*61
$GPGGA,024709.00,4116.83203,N,07353.04090,W,1,08,1.35,139.3,M,-34.2,M,,*6E
$GPGGA,024710.00,4116.83207,N,07353.04100,W,1,08,1.35,138.7,M,-34.2,M,,*6F
$GPGGA,024711.00,4116.83205,N,07353.04114,W,1,08,1.35,138.5,M,-34.2,M,,*6B
$GPGGA,024712.00,4116.83189,N,07353.04120,W,1,08,1.35,138.6,M,-34.2,M,,*6B
$GPGGA,024713.00,4116.83206,N,07353.04134,W,1,08,1.35,137.7,M,-34.2,M,,*65
$GPGGA,024714.00,4116.83220,N,07353.04149,W,1,08,1.35,136.9,M,-34.2,M,,*63
$GPGGA,024715.00,4116.83222,N,07353.04161,W,1,08,1.35,136.3,M,-34.2,M,,*60
$GPGGA,024716.00,4116.83221,N,07353.04172,W,1,08,1.35,136.2,M,-34.2,M,,*63
$GPGGA,024717.00,4116.83200,N,07353.04177,W,1,08,1.35,136.5,M,-34.2,M,,*63
$GPGGA,024718.00,4116.83189,N,07353.04181,W,1,08,1.35,136.6,M,-34.2,M,,*64
$GPGGA,024719.00,4116.83174,N,07353.04186,W,1,08,1.35,136.8,M,-34.2,M,,*6E
$GPGGA,024720.00,4116.83159,N,07353.04196,W,1,08,1.35,136.9,M,-34.2,M,,*6B
$GPGGA,024721.00,4116.83173,N,07353.04199,W,1,08,1.35,136.3,M,-34.2,M,,*67
$GPGGA,024722.00,4116.83156,N,07353.04205,W,1,08,1.35,136.6,M,-34.2,M,,*60
$GPGGA,024723.00,4116.83170,N,07353.04217,W,1,08,1.35,136.1,M,-34.2,M,,*61
$GPGGA,024724.00,4116.83160,N,07353.04222,W,1,08,1.35,136.3,M,-34.2,M,,*63
$GPGGA,024725.00,4116.83150,N,07353.04231,W,1,08,1.35,136.4,M,-34.2,M,,*64
$GPGGA,024726.00,4116.83140,N,07353.04241,W,1,08,1.35,136.5,M,-34.2,M,,*60
$GPGGA,024727.00,4116.83120,N,07353.04245,W,1,09,1.08,137.0,M,-34.2,M,,*68
$GPGGA,024728.00,4116.83115,N,07353.04260,W,1,09,1.08,137.0,M,-34.2,M,,*66
$GPGGA,024729.00,4116.83110,N,07353.04276,W,1,09,1.08,136.9,M,-34.2,M,,*6D
$GPGGA,024730.00,4116.83099,N,07353.04292,W,1,09,1.08,137.0,M,-34.2,M,,*67
$GPGGA,024731.00,4116.83098,N,07353.04303,W,1,09,1.08,137.1,M,-34.2,M,,*6F
$GPGGA,024732.00,4116.83085,N,07353.04324,W,1,09,1.08,137.2,M,-34.2,M,,*66
$GPGGA,024733.00,4116.83098,N,07353.04341,W,1,09,1.08,136.5,M,-34.2,M,,*6E
$GPGGA,024734.00,4116.83123,N,07353.04363,W,1,09,1.08,135.7,M,-34.2,M,,*69
$GPGGA,024735.00,4116.83174,N,07353.04371,W,1,09,1.08,134.3,M,-34.2,M,,*6C
$GPGGA,024736.00,4116.83189,N,07353.04374,W,1,09,1.08,134.1,M,-34.2,M,,*6A
$GPGGA,024737.00,4116.83193,N,07353.04389,W,1,09,1.08,133.6,M,-34.2,M,,*62
$GPGGA,024738.00,4116.83216,N,07353.04402,W,1,09,1.08,132.8,M,-34.2,M,,*68
$GPGGA,024739.00,4116.83235,N,07353.04404,W,1,09,1.08,132.2,M,-34.2,M,,*64
$GPGGA,024740.00,4116.83254,N,07353.04405,W,1,09,1.08,131.4,M,-34.2,M,,*69
$GPGGA,024741.00,4116.83273,N,07353.04411,W,1,09,1.08,130.5,M,-34.2,M,,*68
$GPGGA,024742.00,4116.83306,N,07353.04404,W,1,09,1.08,129.6,M,-34.2,M,,*67
$GPGGA,024743.00,4116.83333,N,07353.04403,W,1,09,1.08,128.6,M,-34.2,M,,*66
$GPGGA,024744.00,4116.83347,N,07353.04406,W,1,09,1.08,127.9,M,-34.2,M,,*67
$GPGGA,024745.00,4116.83362,N,07353.04412,W,1,09,1.08,127.1,M,-34.2,M,,*6C
$GPGGA,024746.00,4116.83378,N,07353.04415,W,1,09,1.08,126.5,M,-34.2,M,,*66
$GPGGA,024747.00,4116.83391,N,07353.04417,W,1,09,1.08,126.0,M,-34.2,M,,*67
$GPGGA,024748.00,4116.83406,N,07353.04416,W,1,09,1.08,125.5,M,-34.2,M,,*66
$GPGGA,024749.00,4116.83411,N,07353.04420,W,1,09,1.08,125.3,M,-34.2,M,,*62
$GPGGA,024750.00,4116.83408,N,07353.04423,W,1,09,1.08,125.1,M,-34.2,M,,*63
$GPGGA,024751.00,4116.83406,N,07353.04420,W,1,09,1.08,125.1,M,-34.2,M,,*6F
$GPGGA,024752.00,4116.83396,N,07353.04416,W,1,09,1.08,125.1,M,-34.2,M,,*67
$GPGGA,024753.00,4116.83399,N,07353.04412,W,1,09,1.08,125.1,M,-34.2,M,,*6D
$GPGGA,024754.00,4116.83392,N,07353.04415,W,1,09,1.08,125.0,M,-34.2,M,,*67
$GPGGA,024755.00,4116.83390,N,07353.04407,W,1,09,1.08,125.3,M,-34.2,M,,*64
$GPGGA,024756.00,4116.83365,N,07353.04401,W,1,09,1.08,125.7,M,-34.2,M,,*6F
$GPGGA,024757.00,4116.83344,N,07353.04398,W,1,08,1.14,126.1,M,-34.2,M,,*63
$GPGGA,024758.00,4116.83336,N,07353.04393,W,1,08,1.14,126.7,M,-34.2,M,,*64
$GPGGA,024759.00,4116.83330,N,07353.04390,W,1,08,1.14,126.9,M,-34.2,M,,*6E
$GPGGA,024800.00,4116.83306,N,07353.04384,W,1,08,1.14,127.4,M,-34.2,M,,*61
$GPGGA,024801.00,4116.83263,N,07353.04370,W,1,09,1.08,127.5,M,-34.2,M,,*64
$GPGGA,024802.00,4116.83227,N,07353.04359,W,1,08,1.14,127.9,M,-34.2,M,,*6C
$GPGGA,024803.00,4116.83223,N,07353.04361,W,1,08,1.14,127.9,M,-34.2,M,,*62
$GPGGA,024804.00,4116.83207,N,07353.04343,W,1,09,1.08,127.6,M,-34.2,M,,*60
$GPGGA,024805.00,4116.83205,N,07353.04346,W,1,08,1.14,127.7,M,-34.2,M,,*6B
$GPGGA,024806.00,4116.83225,N,07353.04359,W,1,08,1.14,127.1,M,-34.2,M,,*62
$GPGGA,024807.00,4116.83222,N,07353.04355,W,1,08,1.14,126.9,M,-34.2,M,,*61
$GPGGA,024808.00,4116.83216,N,07353.04349,W,1,08,1.14,126.7,M,-34.2,M,,*6A
$GPGGA,024809.00,4116.83217,N,07353.04332,W,1,08,1.14,127.1,M,-34.2,M,,*61
$GPGGA,024810.00,4116.83224,N,07353.04328,W,1,08,1.14,127.1,M,-34.2,M,,*62
$GPGGA,024811.00,4116.83231,N,07353.04318,W,1,08,1.14,127.0,M,-34.2,M,,*65
$GPGGA,024812.00,4116.83235,N,07353.04312,W,1,08,1.14,126.6,M,-34.2,M,,*6F
$GPGGA,024813.00,4116.83243,N,07353.04297,W,1,08,1.14,126.9,M,-34.2,M,,*6C
$GPGGA,024814.00,4116.83249,N,07353.04281,W,1,08,1.14,126.9,M,-34.2,M,,*66
$GPGGA,024815.00,4116.83251,N,07353.04272,W,1,08,1.14,126.6,M,-34.2,M,,*6D
$GPGGA,024816.00,4116.83245,N,07353.04266,W,1,08,1.14,126.2,M,-34.2,M,,*6A
$GPGGA,024817.00,4116.83239,N,07353.04262,W,1,08,1.14,125.8,M,-34.2,M,,*6D
$GPGGA,024818.00,4116.83248,N,07353.04257,W,1,08,1.14,125.6,M,-34.2,M,,*6C
$GPGGA,024819.00,4116.83255,N,07353.04251,W,1,08,1.14,125.5,M,-34.2,M,,*64
$GPGGA,024820.00,4116.83256,N,07353.04240,W,1,08,1.14,125.5,M,-34.2,M,,*6D
$GPGGA,024821.00,4116.83258,N,07353.04233,W,1,08,1.14,125.5,M,-34.2,M,,*66
$GPGGA,024822.00,4116.83265,N,07353.04228,W,1,08,1.14,125.5,M,-34.2,M,,*61
$GPGGA,024823.00,4116.83275,N,07353.04222,W,1,08,1.14,125.3,M,-34.2,M,,*6D
$GPGGA,024824.00,4116.83282,N,07353.04215,W,1,08,1.14,125.4,M,-34.2,M,,*61
$GPGGA,024825.00,4116.83293,N,07353.04205,W,1,08,1.14,125.3,M,-34.2,M,,*66
$GPGGA,024826.00,4116.83300,N,07353.04203,W,1,08,1.14,125.2,M,-34.2,M,,*69
$GPGGA,024827.00,4116.83302,N,07353.04196,W,1,08,1.14,125.5,M,-34.2,M,,*62
$GPGGA,024828.00,4116.83298,N,07353.04205,W,1,08,1.14,125.3,M,-34.2,M,,*60
$GPGGA,024829.00,4116.83302,N,07353.04203,W,1,08,1.14,125.4,M,-34.2,M,,*62
$GPGGA,024830.00,4116.83304,N,07353.04193,W,1,08,1.14,125.5,M,-34.2,M,,*67
$GPGGA,024831.00,4116.83305,N,07353.04181,W,1,08,1.14,125.6,M,-34.2,M,,*67
$GPGGA,024832.00,4116.83308,N,07353.04172,W,1,08,1.14,125.8,M,-34.2,M,,*6B
$GPGGA,024833.00,4116.83315,N,07353.04182,W,1,08,1.14,125.4,M,-34.2,M,,*65
$GPGGA,024834.00,4116.83325,N,07353.04175,W,1,08,1.14,125.3,M,-34.2,M,,*6E
$GPGGA,024835.00,4116.83328,N,07353.04156,W,1,08,1.14,125.5,M,-34.2,M,,*65
$GPGGA,024836.00,4116.83334,N,07353.04145,W,1,08,1.14,125.7,M,-34.2,M,,*6B
$GPGGA,024837.00,4116.83338,N,07353.04132,W,1,08,1.14,125.9,M,-34.2,M,,*68
$GPGGA,024838.00,4116.83344,N,07353.04122,W,1,08,1.14,126.1,M,-34.2,M,,*66
$GPGGA,024839.00,4116.83345,N,07353.04115,W,1,08,1.14,126.5,M,-34.2,M,,*66
$GPGGA,024840.00,4116.83351,N,07353.04111,W,1,08,1.14,126.6,M,-34.2,M,,*6A
$GPGGA,024841.00,4116.83346,N,07353.04104,W,1,08,1.14,126.9,M,-34.2,M,,*66
$GPGGA,024842.00,4116.83339,N,07353.04096,W,1,08,1.14,127.1,M,-34.2,M,,*6E
$GPGGA,024843.00,4116.83342,N,07353.04096,W,1,08,1.14,127.4,M,-34.2,M,,*66
$GPGGA,024844.00,4116.83345,N,07353.04090,W,1,08,1.14,127.8,M,-34.2,M,,*6C
$GPGGA,024845.00,4116.83335,N,07353.04072,W,1,08,1.14,128.6,M,-34.2,M,,*67
$GPGGA,024846.00,4116.83336,N,07353.04064,W,1,08,1.14,128.7,M,-34.2,M,,*61
$GPGGA,024847.00,4116.83323,N,07353.04054,W,1,08,1.14,129.4,M,-34.2,M,,*65
$GPGGA,024848.00,4116.83319,N,07353.04051,W,1,08,1.14,129.6,M,-34.2,M,,*64
$GPGGA,024849.00,4116.83311,N,07353.04044,W,1,08,1.14,130.1,M,-34.2,M,,*66
$GPGGA,024850.00,4116.83311,N,07353.04045,W,1,08,1.14,130.3,M,-34.2,M,,*6D
$GPGGA,024851.00,4116.83322,N,07353.04048,W,1,08,1.14,129.9,M,-34.2,M,,*63
$GPGGA,024852.00,4116.83332,N,07353.04052,W,1,08,1.14,129.5,M,-34.2,M,,*66
$GPGGA,024853.00,4116.83339,N,07353.04061,W,1,08,1.14,129.2,M,-34.2,M,,*6B
$GPGGA,024854.00,4116.83345,N,07353.04066,W,1,08,1.14,128.9,M,-34.2,M,,*6A
$GPGGA,024855.00,4116.83346,N,07353.04072,W,1,08,1.14,128.6,M,-34.2,M,,*62
$GPGGA,024856.00,4116.83338,N,07353.04076,W,1,08,1.14,128.6,M,-34.2,M,,*6C
$GPGGA,024857.00,4116.83329,N,07353.04077,W,1,08,1.14,128.4,M,-34.2,M,,*6E
$GPGGA,024858.00,4116.83320,N,07353.04079,W,1,08,1.14,128.6,M,-34.2,M,,*64
$GPGGA,024859.00,4116.83318,N,07353.04077,W,1,08,1.14,128.7,M,-34.2,M,,*61
$GPGGA,024900.00,4116.83321,N,07353.04073,W,1,08,1.14,128.5,M,-34.2,M,,*60
$GPGGA,024901.00,4116.83318,N,07353.04068,W,1,08,1.14,128.6,M,-34.2,M,,*62
$GPGGA,024902.00,4116.83311,N,07353.04063,W,1,08,1.14,128.7,M,-34.2,M,,*62
$GPGGA,024903.00,4116.83317,N,07353.04062,W,1,08,1.14,128.2,M,-34.2,M,,*61
$GPGGA,024904.00,4116.83330,N,07353.04058,W,1,08,1.14,127.7,M,-34.2,M,,*60
$GPGGA,024905.00,4116.83335,N,07353.04056,W,1,08,1.14,127.3,M,-34.2,M,,*6E
$GPGGA,024906.00,4116.83323,N,07353.04048,W,1,08,1.14,127.3,M,-34.2,M,,*65
$GPGGA,024907.00,4116.83311,N,07353.04042,W,1,08,1.14,127.3,M,-34.2,M,,*6F
$GPGGA,024908.00,4116.83295,N,07353.04037,W,1,08,1.14,127.4,M,-34.2,M,,*68
$GPGGA,024909.00,4116.83297,N,07353.04035,W,1,08,1.14,126.9,M,-34.2,M,,*65
$GPGGA,024910.00,4116.83285,N,07353.04036,W,1,08,1.14,126.7,M,-34.2,M,,*63
$GPGGA,024911.00,4116.83275,N,07353.04035,W,1,08,1.14,126.8,M,-34.2,M,,*61
$GPGGA,024912.00,4116.83269,N,07353.04032,W,1,08,1.14,126.7,M,-34.2,M,,*67
$GPGGA,024913.00,4116.83266,N,07353.04021,W,1,08,1.14,126.8,M,-34.2,M,,*64
$GPGGA,024914.00,4116.83243,N,07353.04013,W,1,08,1.14,127.4,M,-34.2,M,,*68
$GPGGA,024915.00,4116.83230,N,07353.04013,W,1,08,1.14,127.6,M,-34.2,M,,*6F
$GPGGA,024916.00,4116.83208,N,07353.04003,W,1,08,1.14,128.1,M,-34.2,M,,*6E
$GPGGA,024917.00,4116.83179,N,07353.03989,W,1,09,1.08,128.9,M,-34.2,M,,*62
$GPGGA,024918.00,4116.83166,N,07353.03990,W,1,09,1.08,129.2,M,-34.2,M,,*61
$GPGGA,024919.00,4116.83160,N,07353.03986,W,1,08,1.14,129.3,M,-34.2,M,,*6C
$GPGGA,024920.00,4116.83149,N,07353.03983,W,1,08,1.14,129.6,M,-34.2,M,,*6D
$GPGGA,024921.00,4116.83115,N,07353.03971,W,1,09,1.08,130.4,M,-34.2,M,,*6E
$GPGGA,024922.00,4116.83077,N,07353.03961,W,1,09,1.08,131.2,M,-34.2,M,,*6E
$GPGGA,024923.00,4116.83063,N,07353.03956,W,1,09,1.14,131.8,M,-34.2,M,,*69
$GPGGA,024924.00,4116.83050,N,07353.03951,W,1,08,1.14,132.3,M,-34.2,M,,*60
$GPGGA,024925.00,4116.83037,N,07353.03943,W,1,08,1.14,132.9,M,-34.2,M,,*69
$GPGGA,024926.00,4116.83037,N,07353.03934,W,1,08,1.14,133.3,M,-34.2,M,,*61
$GPGGA,024927.00,4116.83033,N,07353.03931,W,1,09,1.14,133.6,M,-34.2,M,,*65
$GPGGA,024928.00,4116.83033,N,07353.03928,W,1,09,1.14,133.8,M,-34.2,M,,*6C
$GPGGA,024929.00,4116.83025,N,07353.03929,W,1,08,1.14,134.3,M,-34.2,M,,*66
$GPGGA,024930.00,4116.83033,N,07353.03934,W,1,08,1.14,134.1,M,-34.2,M,,*67
$GPGGA,024931.00,4116.83039,N,07353.03934,W,1,08,1.14,134.0,M,-34.2,M,,*6D
$GPGGA,024932.00,4116.83049,N,07353.03922,W,1,08,1.14,134.0,M,-34.2,M,,*6E
$GPGGA,024933.00,4116.83034,N,07353.03923,W,1,08,1.14,134.4,M,-34.2,M,,*60
$GPGGA,024934.00,4116.83047,N,07353.03908,W,1,08,1.14,134.4,M,-34.2,M,,*6A
$GPGGA,024935.00,4116.83045,N,07353.03902,W,1,08,1.14,134.6,M,-34.2,M,,*61
$GPGGA,024936.00,4116.83043,N,07353.03901,W,1,08,1.14,134.8,M,-34.2,M,,*69
$GPGGA,024937.00,4116.83052,N,07353.03894,W,1,08,1.14,135.0,M,-34.2,M,,*6C
$GPGGA,024938.00,4116.83038,N,07353.03894,W,1,08,1.14,135.3,M,-34.2,M,,*6C
$GPGGA,024939.00,4116.83015,N,07353.03899,W,1,08,1.14,135.6,M,-34.2,M,,*6A
$GPGGA,024940.00,4116.83009,N,07353.03897,W,1,08,1.14,135.8,M,-34.2,M,,*69
$GPGGA,024941.00,4116.83009,N,07353.03893,W,1,08,1.14,135.9,M,-34.2,M,,*6D
$GPGGA,024942.00,4116.83012,N,07353.03887,W,1,08,1.14,136.1,M,-34.2,M,,*6A
$GPGGA,024943.00,4116.83007,N,07353.03880,W,1,08,1.14,136.3,M,-34.2,M,,*6A
$GPGGA,024944.00,4116.82992,N,07353.03879,W,1,08,1.14,136.5,M,-34.2,M,,*69
$GPGGA,024945.00,4116.82991,N,07353.03872,W,1,08,1.14,136.5,M,-34.2,M,,*60
$GPGGA,024946.00,4116.83052,N,07353.03850,W,1,08,1.14,136.2,M,-34.2,M,,*63
$GPGGA,024947.00,4116.83051,N,07353.03848,W,1,09,1.08,136.2,M,-34.2,M,,*64
$GPGGA,024948.00,4116.83016,N,07353.03852,W,1,09,1.08,136.5,M,-34.2,M,,*64
$GPGGA,024949.00,4116.83024,N,07353.03846,W,1,09,1.08,136.6,M,-34.2,M,,*62
$GPGGA,024950.00,4116.83016,N,07353.03843,W,1,09,1.08,136.7,M,-34.2,M,,*6F
$GPGGA,024951.00,4116.83028,N,07353.03833,W,1,09,1.08,136.6,M,-34.2,M,,*65
$GPGGA,024952.00,4116.82998,N,07353.03834,W,1,09,1.08,137.0,M,-34.2,M,,*65
$GPGGA,024953.00,4116.82994,N,07353.03836,W,1,09,1.08,137.0,M,-34.2,M,,*6A
$GPGGA,024954.00,4116.82973,N,07353.03842,W,1,09,1.08,136.9,M,-34.2,M,,*6F
$GPGGA,024955.00,4116.82914,N,07353.03856,W,1,09,1.08,137.2,M,-34.2,M,,*60
$GPGGA,024956.00,4116.82877,N,07353.03859,W,1,09,1.08,137.3,M,-34.2,M,,*69
$GPGGA,024957.00,4116.82856,N,07353.03857,W,1,09,1.08,137.1,M,-34.2,M,,*67
$GPGGA,024958.00,4116.82842,N,07353.03859,W,1,09,1.08,137.1,M,-34.2,M,,*63
$GPGGA,024959.00,4116.82818,N,07353.03866,W,1,08,1.34,137.2,M,-34.2,M,,*6C
$GPGGA,025000.00,4116.82799,N,07353.03871,W,1,08,1.34,137.1,M,-34.2,M,,*6B
$GPGGA,025001.00,4116.82773,N,07353.03877,W,1,08,1.34,137.2,M,-34.2,M,,*6B
$GPGGA,025002.00,4116.82742,N,07353.03882,W,1,08,1.34,137.3,M,-34.2,M,,*61
$GPGGA,025003.00,4116.82717,N,07353.03888,W,1,09,1.08,137.4,M,-34.2,M,,*63
$GPGGA,025004.00,4116.82698,N,07353.03892,W,1,09,1.08,137.3,M,-34.2,M,,*6E
$GPGGA,025005.00,4116.82677,N,07353.03898,W,1,09,1.08,137.4,M,-34.2,M,,*63
$GPGGA,025006.00,4116.82654,N,07353.03902,W,1,09,1.08,137.5,M,-34.2,M,,*62
$GPGGA,025007.00,4116.82638,N,07353.03908,W,1,09,1.08,137.4,M,-34.2,M,,*62
$GPGGA,025008.00,4116.82627,N,07353.03912,W,1,09,1.08,137.3,M,-34.2,M,,*6F
$GPGGA,025009.00,4116.82615,N,07353.03919,W,1,09,1.08,137.1,M,-34.2,M,,*66
$GPGGA,025010.00,4116.82607,N,07353.03925,W,1,09,1.08,136.9,M,-34.2,M,,*6B
$GPGGA,025011.00,4116.82608,N,07353.03931,W,1,09,1.08,136.4,M,-34.2,M,,*6D
$GPGGA,025012.00,4116.82600,N,07353.03935,W,1,09,1.08,136.2,M,-34.2,M,,*64
$GPGGA,025013.00,4116.82596,N,07353.03943,W,1,09,1.08,136.0,M,-34.2,M,,*6A
$GPGGA,025014.00,4116.82606,N,07353.03949,W,1,09,1.08,135.4,M,-34.2,M,,*6A
$GPGGA,025015.00,4116.82607,N,07353.03955,W,1,09,1.08,135.1,M,-34.2,M,,*62
$GPGGA,025016.00,4116.82606,N,07353.03961,W,1,09,1.08,134.8,M,-34.2,M,,*6F
$GPGGA,025017.00,4116.82605,N,07353.03963,W,1,09,1.08,134.5,M,-34.2,M,,*62
$GPGGA,025018.00,4116.82605,N,07353.03968,W,1,09,1.08,134.2,M,-34.2,M,,*61
$GPGGA,025019.00,4116.82619,N,07353.03974,W,1,09,1.08,133.8,M,-34.2,M,,*6D
$GPGGA,025020.00,4116.82626,N,07353.03977,W,1,09,1.08,133.5,M,-34.2,M,,*65
$GPGGA,025021.00,4116.82643,N,07353.03981,W,1,09,1.08,133.1,M,-34.2,M,,*6A
$GPGGA,025022.00,4116.82664,N,07353.03984,W,1,08,1.14,132.6,M,-34.2,M,,*63
$GPGGA,025023.00,4116.82673,N,07353.03984,W,1,09,1.08,132.3,M,-34.2,M,,*6D
$GPGGA,025024.00,4116.82661,N,07353.03992,W,1,09,1.08,132.1,M,-34.2,M,,*6C
$GPGGA,025025.00,4116.82684,N,07353.03993,W,1,09,1.08,131.7,M,-34.2,M,,*62
$GPGGA,025026.00,4116.82708,N,07353.03989,W,1,09,1.08,131.5,M,-34.2,M,,*6D
$GPGGA,025027.00,4116.82733,N,07353.03985,W,1,09,1.08,131.3,M,-34.2,M,,*6E
$GPGGA,025028.00,4116.82770,N,07353.03981,W,1,09,1.08,131.0,M,-34.2,M,,*61
$GPGGA,025029.00,4116.82806,N,07353.03972,W,1,09,1.08,130.8,M,-34.2,M,,*6B
$GPGGA,025030.00,4116.82825,N,07353.03974,W,1,09,1.08,130.7,M,-34.2,M,,*6B
$GPGGA,025031.00,4116.82857,N,07353.03975,W,1,09,1.08,129.7,M,-34.2,M,,*66
$GPGGA,025032.00,4116.82886,N,07353.03973,W,1,09,1.08,129.6,M,-34.2,M,,*6E
$GPGGA,025033.00,4116.82923,N,07353.03972,W,1,08,1.20,129.0,M,-34.2,M,,*6D
$GPGGA,025034.00,4116.82963,N,07353.03968,W,1,08,1.20,128.3,M,-34.2,M,,*67
$GPGGA,025035.00,4116.83001,N,07353.03968,W,1,08,1.20,127.0,M,-34.2,M,,*66
$GPGGA,025036.00,4116.83026,N,07353.03968,W,1,08,1.20,126.8,M,-34.2,M,,*69
$GPGGA,025037.00,4116.83057,N,07353.03974,W,1,08,1.20,125.3,M,-34.2,M,,*6B
$GPGGA,025038.00,4116.83092,N,07353.03977,W,1,08,1.20,124.5,M,-34.2,M,,*69
$GPGGA,025039.00,4116.83116,N,07353.03974,W,1,08,1.20,124.1,M,-34.2,M,,*62
$GPGGA,025040.00,4116.83144,N,07353.03979,W,1,08,1.20,123.2,M,-34.2,M,,*62
$GPGGA,025041.00,4116.83173,N,07353.03985,W,1,09,1.08,122.3,M,-34.2,M,,*6F
$GPGGA,025042.00,4116.83183,N,07353.03985,W,1,09,1.08,122.0,M,-34.2,M,,*60
$GPGGA,025043.00,4116.83198,N,07353.03996,W,1,09,1.08,121.1,M,-34.2,M,,*6B
$GPGGA,025044.00,4116.83216,N,07353.04003,W,1,09,1.08,120.3,M,-34.2,M,,*68
$GPGGA,025045.00,4116.83236,N,07353.04012,W,1,09,1.08,119.6,M,-34.2,M,,*64
$GPGGA,025046.00,4116.83256,N,07353.04020,W,1,09,1.08,118.9,M,-34.2,M,,*6E
$GPGGA,025047.00,4116.83281,N,07353.04028,W,1,09,1.08,117.5,M,-34.2,M,,*6E
$GPGGA,025048.00,4116.83309,N,07353.04046,W,1,09,1.08,115.7,M,-34.2,M,,*68
$GPGGA,025049.00,4116.83339,N,07353.04064,W,1,09,1.08,114.1,M,-34.2,M,,*6D
$GPGGA,025050.00,4116.83347,N,07353.04062,W,1,09,1.08,114.1,M,-34.2,M,,*6A
$GPGGA,025051.00,4116.83357,N,07353.04065,W,1,09,1.08,113.6,M,-34.2,M,,*6D
$GPGGA,025052.00,4116.83374,N,07353.04079,W,1,09,1.08,113.0,M,-34.2,M,,*64
$GPGGA,025053.00,4116.83391,N,07353.04090,W,1,09,1.08,112.1,M,-34.2,M,,*69
$GPGGA,025054.00,4116.83400,N,07353.04099,W,1,09,1.08,111.6,M,-34.2,M,,*6C
$GPGGA,025055.00,4116.83397,N,07353.04100,W,1,09,1.08,111.8,M,-34.2,M,,*6B
$GPGGA,025056.00,4116.83401,N,07353.04106,W,1,09,1.08,111.7,M,-34.2,M,,*69
$GPGGA,025057.00,4116.83394,N,07353.04106,W,1,09,1.08,112.2,M,-34.2,M,,*65
$GPGGA,025058.00,4116.83395,N,07353.04111,W,1,09,1.08,112.2,M,-34.2,M,,*6D
$GPGGA,025059.00,4116.83395,N,07353.04118,W,1,09,1.08,112.3,M,-34.2,M,,*64
$GPGGA,025100.00,4116.83395,N,07353.04119,W,1,09,1.08,112.7,M,-34.2,M,,*6C
$GPGGA,025101.00,4116.83410,N,07353.04121,W,1,09,1.08,112.5,M,-34.2,M,,*6E
$GPGGA,025102.00,4116.83408,N,07353.04117,W,1,09,1.08,113.1,M,-34.2,M,,*64
$GPGGA,025103.00,4116.83424,N,07353.04128,W,1,09,1.08,112.5,M,-34.2,M,,*62
$GPGGA,025104.00,4116.83425,N,07353.04135,W,1,09,1.08,112.7,M,-34.2,M,,*6A
$GPGGA,025105.00,4116.83426,N,07353.04146,W,1,09,1.08,112.4,M,-34.2,M,,*6F
$GPGGA,025106.00,4116.83445,N,07353.04152,W,1,09,1.08,111.8,M,-34.2,M,,*63
$GPGGA,025107.00,4116.83441,N,07353.04158,W,1,09,1.08,112.0,M,-34.2,M,,*67
$GPGGA,025108.00,4116.83428,N,07353.04159,W,1,09,1.08,112.4,M,-34.2,M,,*62
$GPGGA,025109.00,4116.83424,N,07353.04172,W,1,09,1.08,112.2,M,-34.2,M,,*60
$GPGGA,025110.00,4116.83388,N,07353.04186,W,1,09,1.08,112.6,M,-34.2,M,,*66
$GPGGA,025111.00,4116.83407,N,07353.04203,W,1,09,1.08,111.8,M,-34.2,M,,*64
$GPGGA,025112.00,4116.83376,N,07353.04227,W,1,09,1.08,112.0,M,-34.2,M,,*6B
$GPGGA,025113.00,4116.83366,N,07353.04247,W,1,09,1.08,111.8,M,-34.2,M,,*66
$GPGGA,025114.00,4116.83350,N,07353.04263,W,1,09,1.08,111.9,M,-34.2,M,,*63
$GPGGA,025115.00,4116.83338,N,07353.04264,W,1,09,1.08,112.4,M,-34.2,M,,*65
$GPGGA,025116.00,4116.83336,N,07353.04272,W,1,09,1.08,112.3,M,-34.2,M,,*68
$GPGGA,025117.00,4116.83318,N,07353.04286,W,1,09,1.08,112.6,M,-34.2,M,,*6B
$GPGGA,025118.00,4116.83289,N,07353.04292,W,1,09,1.08,113.3,M,-34.2,M,,*6C
$GPGGA,025119.00,4116.83268,N,07353.04290,W,1,09,1.08,113.9,M,-34.2,M,,*6A
$GPGGA,025120.00,4116.83248,N,07353.04285,W,1,09,1.08,114.6,M,-34.2,M,,*6E
$GPGGA,025121.00,4116.83235,N,07353.04301,W,1,09,1.08,114.8,M,-34.2,M,,*66
$GPGGA,025122.00,4116.83236,N,07353.04329,W,1,09,1.08,114.3,M,-34.2,M,,*67
$GPGGA,025123.00,4116.83221,N,07353.04340,W,1,09,1.08,114.6,M,-34.2,M,,*6A
$GPGGA,025124.00,4116.83220,N,07353.04365,W,1,09,1.08,114.2,M,-34.2,M,,*6F
$GPGGA,025125.00,4116.83208,N,07353.04376,W,1,08,1.29,114.2,M,-34.2,M,,*64
$GPGGA,025126.00,4116.83177,N,07353.04394,W,1,08,1.29,114.8,M,-34.2,M,,*6A
$GPGGA,025127.00,4116.83152,N,07353.04401,W,1,08,1.29,115.3,M,-34.2,M,,*6D
$GPGGA,025128.00,4116.83138,N,07353.04408,W,1,08,1.29,115.5,M,-34.2,M,,*61
$GPGGA,025129.00,4116.83111,N,07353.04426,W,1,08,1.29,116.1,M,-34.2,M,,*60
$GPGGA,025130.00,4116.83088,N,07353.04443,W,1,08,1.29,116.5,M,-34.2,M,,*6E
$GPGGA,025131.00,4116.83066,N,07353.04446,W,1,08,1.29,117.1,M,-34.2,M,,*6F
$GPGGA,025132.00,4116.83049,N,07353.04451,W,1,08,1.29,117.4,M,-34.2,M,,*62
$GPGGA,025133.00,4116.83041,N,07353.04456,W,1,08,1.29,117.5,M,-34.2,M,,*6D
$GPGGA,025134.00,4116.83031,N,07353.04461,W,1,08,1.29,117.6,M,-34.2,M,,*6A
$GPGGA,025135.00,4116.82994,N,07353.04405,W,1,09,1.08,119.7,M,-34.2,M,,*63
$GPGGA,025136.00,4116.82975,N,07353.04409,W,1,09,1.29,120.0,M,-34.2,M,,*6D
$GPGGA,025137.00,4116.82939,N,07353.04370,W,1,09,1.08,121.8,M,-34.2,M,,*67
$GPGGA,025138.00,4116.82925,N,07353.04379,W,1,09,1.29,121.8,M,-34.2,M,,*6F
$GPGGA,025139.00,4116.82938,N,07353.04379,W,1,08,1.29,121.6,M,-34.2,M,,*6D
$GPGGA,025140.00,4116.82935,N,07353.04380,W,1,08,1.29,121.8,M,-34.2,M,,*66
$GPGGA,025141.00,4116.82909,N,07353.04381,W,1,08,1.29,122.3,M,-34.2,M,,*61
$GPGGA,025142.00,4116.82898,N,07353.04377,W,1,08,1.29,122.7,M,-34.2,M,,*66
$GPGGA,025143.00,4116.82873,N,07353.04383,W,1,08,1.29,123.0,M,-34.2,M,,*6F
$GPGGA,025144.00,4116.82887,N,07353.04380,W,1,08,1.29,123.1,M,-34.2,M,,*61
$GPGGA,025145.00,4116.82866,N,07353.04390,W,1,08,1.29,123.3,M,-34.2,M,,*6C
$GPGGA,025146.00,4116.82838,N,07353.04400,W,1,08,1.29,123.7,M,-34.2,M,,*6E
$GPGGA,025147.00,4116.82843,N,07353.04397,W,1,08,1.29,123.8,M,-34.2,M,,*65
$GPGGA,025148.00,4116.82854,N,07353.04390,W,1,08,1.29,124.0,M,-34.2,M,,*64
$GPGGA,025149.00,4116.82865,N,07353.04378,W,1,08,1.29,124.2,M,-34.2,M,,*63
$GPGGA,025150.00,4116.82889,N,07353.04366,W,1,08,1.29,124.3,M,-34.2,M,,*67
$GPGGA,025151.00,4116.82884,N,07353.04370,W,1,08,1.29,124.6,M,-34.2,M,,*69
$GPGGA,025152.00,4116.82891,N,07353.04368,W,1,08,1.29,124.7,M,-34.2,M,,*66
$GPGGA,025153.00,4116.82899,N,07353.04367,W,1,08,1.29,124.8,M,-34.2,M,,*6F
$GPGGA,025154.00,4116.82942,N,07353.04356,W,1,08,1.29,124.6,M,-34.2,M,,*63
$GPGGA,025155.00,4116.82974,N,07353.04347,W,1,08,1.29,124.5,M,-34.2,M,,*64
$GPGGA,025156.00,4116.82983,N,07353.04336,W,1,08,1.29,124.7,M,-34.2,M,,*6B
$GPGGA,025157.00,4116.82982,N,07353.04335,W,1,08,1.29,124.9,M,-34.2,M,,*66
$GPGGA,025158.00,4116.83004,N,07353.04334,W,1,08,1.29,124.6,M,-34.2,M,,*61
$GPGGA,025159.00,4116.83029,N,07353.04322,W,1,08,1.29,124.5,M,-34.2,M,,*6B
$GPGGA,025200.00,4116.83058,N,07353.04313,W,1,08,1.29,124.4,M,-34.2,M,,*61
$GPGGA,025201.00,4116.83076,N,07353.04303,W,1,08,1.29,124.4,M,-34.2,M,,*6D
$GPGGA,025202.00,4116.83079,N,07353.04303,W,1,08,1.29,124.5,M,-34.2,M,,*60
$GPGGA,025203.00,4116.83104,N,07353.04295,W,1,09,1.29,124.3,M,-34.2,M,,*63
$GPGGA,025204.00,4116.83124,N,07353.04283,W,1,09,1.29,124.3,M,-34.2,M,,*61
$GPGGA,025205.00,4116.83150,N,07353.04301,W,1,09,1.08,123.7,M,-34.2,M,,*68
$GPGGA,025206.00,4116.83174,N,07353.04319,W,1,09,1.08,123.4,M,-34.2,M,,*67
$GPGGA,025207.00,4116.83184,N,07353.04327,W,1,09,1.08,123.2,M,-34.2,M,,*62
$GPGGA,025208.00,4116.83201,N,07353.04314,W,1,09,1.08,123.3,M,-34.2,M,,*62
$GPGGA,025209.00,4116.83218,N,07353.04318,W,1,09,1.08,123.2,M,-34.2,M,,*66
$GPGGA,025210.00,4116.83240,N,07353.04321,W,1,09,1.08,123.1,M,-34.2,M,,*6A
$GPGGA,025211.00,4116.83260,N,07353.04314,W,1,09,1.08,123.0,M,-34.2,M,,*6E
$GPGGA,025212.00,4116.83275,N,07353.04314,W,1,09,1.08,122.8,M,-34.2,M,,*60
$GPGGA,025213.00,4116.83281,N,07353.04298,W,1,08,1.29,123.1,M,-34.2,M,,*65
$GPGGA,025214.00,4116.83297,N,07353.04296,W,1,08,1.29,123.1,M,-34.2,M,,*6B
$GPGGA,025215.00,4116.83303,N,07353.04281,W,1,08,1.29,123.4,M,-34.2,M,,*65
$GPGGA,025216.00,4116.83306,N,07353.04272,W,1,08,1.29,123.7,M,-34.2,M,,*6C
$GPGGA,025217.00,4116.83314,N,07353.04254,W,1,08,1.29,123.8,M,-34.2,M,,*65
$GPGGA,025218.00,4116.83320,N,07353.04254,W,1,08,1.29,123.7,M,-34.2,M,,*62
$GPGGA,025219.00,4116.83332,N,07353.04263,W,1,08,1.29,123.5,M,-34.2,M,,*66
$GPGGA,025220.00,4116.83343,N,07353.04269,W,1,08,1.29,123.3,M,-34.2,M,,*66
$GPGGA,025221.00,4116.83347,N,07353.04267,W,1,08,1.29,123.2,M,-34.2,M,,*6C
$GPGGA,025222.00,4116.83346,N,07353.04273,W,1,08,1.29,123.2,M,-34.2,M,,*6B
$GPGGA,025223.00,4116.83351,N,07353.04264,W,1,08,1.29,123.3,M,-34.2,M,,*6B
$GPGGA,025224.00,4116.83354,N,07353.04250,W,1,08,1.29,123.4,M,-34.2,M,,*69
$GPGGA,025225.00,4116.83355,N,07353.04242,W,1,08,1.29,123.4,M,-34.2,M,,*6A
$GPGGA,025226.00,4116.83360,N,07353.04239,W,1,08,1.29,123.3,M,-34.2,M,,*64
$GPGGA,025227.00,4116.83357,N,07353.04236,W,1,08,1.29,123.4,M,-34.2,M,,*69
$GPGGA,025228.00,4116.83354,N,07353.04236,W,1,08,1.29,123.4,M,-34.2,M,,*65
$GPGGA,025229.00,4116.83356,N,07353.04257,W,1,08,1.08,123.0,M,-34.2,M,,*66
$GPGGA,025230.00,4116.83352,N,07353.04279,W,1,08,1.08,122.8,M,-34.2,M,,*6F
$GPGGA,025231.00,4116.83361,N,07353.04299,W,1,09,1.08,122.3,M,-34.2,M,,*6A
$GPGGA,025232.00,4116.83365,N,07353.04317,W,1,09,1.08,122.0,M,-34.2,M,,*69
$GPGGA,025233.00,4116.83372,N,07353.04336,W,1,09,1.08,121.5,M,-34.2,M,,*6B
$GPGGA,025234.00,4116.83374,N,07353.04346,W,1,09,1.08,121.4,M,-34.2,M,,*6C
$GPGGA,025235.00,4116.83384,N,07353.04368,W,1,09,1.08,121.0,M,-34.2,M,,*6A
$GPGGA,025236.00,4116.83380,N,07353.04370,W,1,09,1.08,121.0,M,-34.2,M,,*64
$GPGGA,025237.00,4116.83387,N,07353.04374,W,1,09,1.08,120.8,M,-34.2,M,,*6F
$GPGGA,025238.00,4116.83386,N,07353.04368,W,1,09,1.08,120.8,M,-34.2,M,,*6C
$GPGGA,025239.00,4116.83387,N,07353.04370,W,1,09,1.08,120.7,M,-34.2,M,,*6A
$GPGGA,025240.00,4116.83387,N,07353.04381,W,1,09,1.08,120.6,M,-34.2,M,,*6B
$GPGGA,025241.00,4116.83384,N,07353.04368,W,1,09,1.08,120.7,M,-34.2,M,,*6F
$GPGGA,025242.00,4116.83387,N,07353.04372,W,1,09,1.08,120.7,M,-34.2,M,,*64
$GPGGA,025243.00,4116.83390,N,07353.04386,W,1,09,1.08,120.5,M,-34.2,M,,*6A
$GPGGA,025244.00,4116.83388,N,07353.04371,W,1,09,1.08,120.6,M,-34.2,M,,*6F
$GPGGA,025245.00,4116.83389,N,07353.04374,W,1,09,1.08,120.6,M,-34.2,M,,*6A
$GPGGA,025246.00,4116.83385,N,07353.04363,W,1,09,1.08,120.7,M,-34.2,M,,*62
$GPGGA,025247.00,4116.83385,N,07353.04354,W,1,09,1.08,120.7,M,-34.2,M,,*67
$GPGGA,025248.00,4116.83381,N,07353.04323,W,1,08,1.13,120.9,M,-34.2,M,,*69
$GPGGA,025249.00,4116.83378,N,07353.04291,W,1,08,1.13,121.1,M,-34.2,M,,*6F
$GPGGA,025250.00,4116.83368,N,07353.04259,W,1,08,1.13,121.4,M,-34.2,M,,*67
$GPGGA,025251.00,4116.83366,N,07353.04257,W,1,08,1.13,121.3,M,-34.2,M,,*61
$GPGGA,025252.00,4116.83364,N,07353.04231,W,1,08,1.13,121.6,M,-34.2,M,,*65
$GPGGA,025253.00,4116.83358,N,07353.04219,W,1,08,1.13,121.8,M,-34.2,M,,*6F
$GPGGA,025254.00,4116.83342,N,07353.04186,W,1,08,1.13,121.9,M,-34.2,M,,*67
$GPGGA,025255.00,4116.83345,N,07353.04211,W,1,08,1.13,121.7,M,-34.2,M,,*62
$GPGGA,025256.00,4116.83350,N,07353.04224,W,1,08,1.13,121.6,M,-34.2,M,,*62
$GPGGA,025257.00,4116.83359,N,07353.04246,W,1,08,1.13,121.5,M,-34.2,M,,*6D
$GPGGA,025258.00,4116.83365,N,07353.04242,W,1,08,1.13,121.6,M,-34.2,M,,*6A
$GPGGA,025259.00,4116.83366,N,07353.04238,W,1,08,1.13,121.6,M,-34.2,M,,*65
$GPGGA,025300.00,4116.83365,N,07353.04249,W,1,08,1.13,121.6,M,-34.2,M,,*6D
$GPGGA,025301.00,4116.83361,N,07353.04255,W,1,08,1.13,121.7,M,-34.2,M,,*64
$GPGGA,025302.00,4116.83355,N,07353.04240,W,1,08,1.13,122.0,M,-34.2,M,,*60
$GPGGA,025303.00,4116.83351,N,07353.04248,W,1,09,1.08,122.2,M,-34.2,M,,*64
$GPGGA,025304.00,4116.83351,N,07353.04245,W,1,09,1.08,122.3,M,-34.2,M,,*6F
$GPGGA,025305.00,4116.83354,N,07353.04241,W,1,09,1.08,122.5,M,-34.2,M,,*69
$GPGGA,025306.00,4116.83352,N,07353.04255,W,1,09,1.08,122.3,M,-34.2,M,,*6F
$GPGGA,025307.00,4116.83347,N,07353.04259,W,1,09,1.08,122.3,M,-34.2,M,,*66
$GPGGA,025308.00,4116.83344,N,07353.04256,W,1,09,1.08,122.2,M,-34.2,M,,*64
$GPGGA,025309.00,4116.83341,N,07353.04254,W,1,09,1.08,122.2,M,-34.2,M,,*62
$GPGGA,025310.00,4116.83329,N,07353.04236,W,1,09,1.08,122.2,M,-34.2,M,,*60
$GPGGA,025311.00,4116.83315,N,07353.04223,W,1,09,1.08,122.3,M,-34.2,M,,*6B
$GPGGA,025312.00,4116.83305,N,07353.04214,W,1,09,1.08,122.4,M,-34.2,M,,*6A
$GPGGA,025313.00,4116.83300,N,07353.04207,W,1,09,1.08,122.3,M,-34.2,M,,*6B
$GPGGA,025314.00,4116.83292,N,07353.04199,W,1,09,1.08,122.3,M,-34.2,M,,*62
$GPGGA,025315.00,4116.83284,N,07353.04195,W,1,09,1.08,122.4,M,-34.2,M,,*6F
$GPGGA,025316.00,4116.83282,N,07353.04184,W,1,09,1.08,122.4,M,-34.2,M,,*6A
$GPGGA,025317.00,4116.83276,N,07353.04174,W,1,09,1.08,122.4,M,-34.2,M,,*6F
$GPGGA,025318.00,4116.83276,N,07353.04181,W,1,09,1.08,122.4,M,-34.2,M,,*6A
$GPGGA,025319.00,4116.83280,N,07353.04184,W,1,09,1.08,122.7,M,-34.2,M,,*64
$GPGGA,025320.00,4116.83283,N,07353.04202,W,1,09,1.08,122.5,M,-34.2,M,,*62
$GPGGA,025321.00,4116.83292,N,07353.04204,W,1,09,1.08,122.7,M,-34.2,M,,*67
$GPGGA,025322.00,4116.83307,N,07353.04214,W,1,09,1.08,122.5,M,-34.2,M,,*6A
$GPGGA,025323.00,4116.83319,N,07353.04232,W,1,09,1.08,122.8,M,-34.2,M,,*6D
$GPGGA,025324.00,4116.83336,N,07353.04253,W,1,09,1.08,122.8,M,-34.2,M,,*60
$GPGGA,025325.00,4116.83348,N,07353.04259,W,1,09,1.08,122.7,M,-34.2,M,,*6D
$GPGGA,025326.00,4116.83364,N,07353.04283,W,1,09,1.08,122.7,M,-34.2,M,,*67
$GPGGA,025327.00,4116.83367,N,07353.04281,W,1,09,1.08,122.5,M,-34.2,M,,*65
$GPGGA,025328.00,4116.83373,N,07353.04290,W,1,09,1.08,122.3,M,-34.2,M,,*69
$GPGGA,025329.00,4116.83383,N,07353.04302,W,1,09,1.08,122.4,M,-34.2,M,,*6A
$GPGGA,025330.00,4116.83379,N,07353.04305,W,1,09,1.08,122.3,M,-34.2,M,,*67
$GPGGA,025331.00,4116.83375,N,07353.04284,W,1,09,1.08,122.3,M,-34.2,M,,*62
$GPGGA,025332.00,4116.83369,N,07353.04269,W,1,09,1.08,122.4,M,-34.2,M,,*68
$GPGGA,025333.00,4116.83372,N,07353.04259,W,1,09,1.08,122.4,M,-34.2,M,,*60
$GPGGA,025334.00,4116.83386,N,07353.04266,W,1,09,1.08,122.5,M,-34.2,M,,*61
$GPGGA,025335.00,4116.83389,N,07353.04257,W,1,09,1.08,122.4,M,-34.2,M,,*6C
$GPGGA,025336.00,4116.83392,N,07353.04248,W,1,09,1.08,122.4,M,-34.2,M,,*6B
$GPGGA,025337.00,4116.83396,N,07353.04229,W,1,09,1.08,122.5,M,-34.2,M,,*68
$GPGGA,025338.00,4116.83406,N,07353.04225,W,1,09,1.08,122.9,M,-34.2,M,,*69
$GPGGA,025339.00,4116.83416,N,07353.04214,W,1,09,1.08,122.7,M,-34.2,M,,*65
$GPGGA,025340.00,4116.83420,N,07353.04202,W,1,09,1.08,122.6,M,-34.2,M,,*68
$GPGGA,025341.00,4116.83434,N,07353.04217,W,1,09,1.08,123.3,M,-34.2,M,,*6C
$GPGGA,025342.00,4116.83445,N,07353.04213,W,1,09,1.08,123.3,M,-34.2,M,,*6D
$GPGGA,025343.00,4116.83443,N,07353.04187,W,1,09,1.08,123.2,M,-34.2,M,,*65
$GPGGA,025344.00,4116.83452,N,07353.04185,W,1,09,1.08,123.3,M,-34.2,M,,*61
$GPGGA,025345.00,4116.83454,N,07353.04178,W,1,09,1.08,123.4,M,-34.2,M,,*63
$GPGGA,025346.00,4116.83475,N,07353.04187,W,1,09,1.08,123.9,M,-34.2,M,,*6E
$GPGGA,025347.00,4116.83482,N,07353.04179,W,1,09,1.08,123.8,M,-34.2,M,,*67
$GPGGA,025348.00,4116.83482,N,07353.04163,W,1,09,1.08,123.6,M,-34.2,M,,*6D
$GPGGA,025349.00,4116.83491,N,07353.04154,W,1,09,1.08,123.5,M,-34.2,M,,*69
$GPGGA,025350.00,4116.83489,N,07353.04142,W,1,09,1.08,123.6,M,-34.2,M,,*6C
$GPGGA,025351.00,4116.83477,N,07353.04124,W,1,09,1.08,123.5,M,-34.2,M,,*6F
$GPGGA,025352.00,4116.83470,N,07353.04108,W,1,09,1.08,123.6,M,-34.2,M,,*66
$GPGGA,025353.00,4116.83466,N,07353.04097,W,1,09,1.08,123.3,M,-34.2,M,,*62
$GPGGA,025354.00,4116.83461,N,07353.04083,W,1,09,1.08,123.4,M,-34.2,M,,*60
$GPGGA,025355.00,4116.83464,N,07353.04074,W,1,09,1.08,123.4,M,-34.2,M,,*6C
$GPGGA,025356.00,4116.83460,N,07353.04063,W,1,09,1.08,123.2,M,-34.2,M,,*6B
$GPGGA,025357.00,4116.83447,N,07353.04049,W,1,09,1.08,123.2,M,-34.2,M,,*67
$GPGGA,025358.00,4116.83437,N,07353.04036,W,1,09,1.08,123.2,M,-34.2,M,,*67
$GPGGA,025359.00,4116.83432,N,07353.04028,W,1,08,1.11,123.3,M,-34.2,M,,*64
$GPGGA,025400.00,4116.83422,N,07353.04023,W,1,08,1.11,123.5,M,-34.2,M,,*63
$GPGGA,025401.00,4116.83424,N,07353.04027,W,1,08,1.11,123.8,M,-34.2,M,,*6D
$GPGGA,025402.00,4116.83413,N,07353.04030,W,1,08,1.11,123.9,M,-34.2,M,,*6D
$GPGGA,025403.00,4116.83407,N,07353.04035,W,1,08,1.11,124.0,M,-34.2,M,,*62
$GPGGA,025404.00,4116.83405,N,07353.04039,W,1,08,1.11,124.1,M,-34.2,M,,*6A
$GPGGA,025405.00,4116.83405,N,07353.04051,W,1,09,1.08,124.9,M,-34.2,M,,*64
$GPGGA,025406.00,4116.83400,N,07353.04060,W,1,09,1.08,125.4,M,-34.2,M,,*6C
$GPGGA,025407.00,4116.83397,N,07353.04072,W,1,09,1.08,126.4,M,-34.2,M,,*64
$GPGGA,025408.00,4116.83394,N,07353.04081,W,1,09,1.08,126.9,M,-34.2,M,,*69
$GPGGA,025409.00,4116.83388,N,07353.04094,W,1,09,1.08,127.8,M,-34.2,M,,*61
$GPGGA,025410.00,4116.83389,N,07353.04107,W,1,09,1.08,128.8,M,-34.2,M,,*6C
$GPGGA,025411.00,4116.83379,N,07353.04111,W,1,08,1.11,129.0,M,-34.2,M,,*65
$GPGGA,025412.00,4116.83382,N,07353.04124,W,1,08,1.11,129.9,M,-34.2,M,,*6D
$GPGGA,025413.00,4116.83374,N,07353.04126,W,1,08,1.11,130.3,M,-34.2,M,,*65
$GPGGA,025414.00,4116.83369,N,07353.04131,W,1,08,1.11,130.9,M,-34.2,M,,*62
$GPGGA,025415.00,4116.83358,N,07353.04132,W,1,08,1.11,131.2,M,-34.2,M,,*68
$GPGGA,025416.00,4116.83360,N,07353.04137,W,1,08,1.11,131.9,M,-34.2,M,,*6E
$GPGGA,025417.00,4116.83357,N,07353.04139,W,1,08,1.11,132.1,M,-34.2,M,,*6E
$GPGGA,025418.00,4116.83348,N,07353.04142,W,1,08,1.11,132.1,M,-34.2,M,,*63
$GPGGA,025419.00,4116.83339,N,07353.04147,W,1,08,1.11,132.4,M,-34.2,M,,*64
$GPGGA,025420.00,4116.83326,N,07353.04147,W,1,08,1.11,132.4,M,-34.2,M,,*60
$GPGGA,025421.00,4116.83340,N,07353.04168,W,1,08,1.11,133.1,M,-34.2,M,,*68
$GPGGA,025422.00,4116.83350,N,07353.04185,W,1,08,1.11,133.6,M,-34.2,M,,*6E
$GPGGA,025423.00,4116.83347,N,07353.04189,W,1,08,1.11,133.5,M,-34.2,M,,*66
$GPGGA,025424.00,4116.83354,N,07353.04195,W,1,08,1.11,133.8,M,-34.2,M,,*63
$GPGGA,025425.00,4116.83372,N,07353.04211,W,1,08,1.11,134.3,M,-34.2,M,,*65
$GPGGA,025426.00,4116.83361,N,07353.04210,W,1,09,1.08,134.1,M,-34.2,M,,*6E
$GPGGA,025427.00,4116.83353,N,07353.04208,W,1,09,1.08,134.0,M,-34.2,M,,*66
$GPGGA,025428.00,4116.83369,N,07353.04220,W,1,09,1.08,134.3,M,-34.2,M,,*69
$GPGGA,025429.00,4116.83376,N,07353.04225,W,1,09,1.08,134.2,M,-34.2,M,,*62
$GPGGA,025430.00,4116.83366,N,07353.04225,W,1,09,1.08,133.9,M,-34.2,M,,*67
$GPGGA,025431.00,4116.83356,N,07353.04227,W,1,08,1.13,133.6,M,-34.2,M,,*63
$GPGGA,025432.00,4116.83353,N,07353.04229,W,1,07,1.14,133.4,M,-34.2,M,,*61
$GPGGA,025433.00,4116.83346,N,07353.04227,W,1,07,1.61,133.0,M,-34.2,M,,*6C
$GPGGA,025434.00,4116.83348,N,07353.04223,W,1,07,1.61,132.6,M,-34.2,M,,*66
$GPGGA,025435.00,4116.83345,N,07353.04223,W,1,06,1.65,132.4,M,-34.2,M,,*6D
$GPGGA,025436.00,4116.83347,N,07353.04219,W,1,06,1.65,132.3,M,-34.2,M,,*62
$GPGGA,025437.00,4116.83349,N,07353.04225,W,1,06,1.65,132.3,M,-34.2,M,,*62
$GPGGA,025438.00,4116.83355,N,07353.04228,W,1,06,1.65,132.5,M,-34.2,M,,*6B
$GPGGA,025439.00,4116.83326,N,07353.04215,W,1,07,1.14,131.5,M,-34.2,M,,*64
$GPGGA,025440.00,4116.83306,N,07353.04202,W,1,07,1.14,130.5,M,-34.2,M,,*6F
$GPGGA,025441.00,4116.83293,N,07353.04194,W,1,08,1.13,129.8,M,-34.2,M,,*62
$GPGGA,025442.00,4116.83294,N,07353.04190,W,1,08,1.13,129.5,M,-34.2,M,,*6F
$GPGGA,025443.00,4116.83293,N,07353.04188,W,1,07,1.14,129.3,M,-34.2,M,,*6E
$GPGGA,025444.00,4116.83289,N,07353.04182,W,1,08,1.13,129.1,M,-34.2,M,,*62
$GPGGA,025445.00,4116.83284,N,07353.04178,W,1,08,1.13,128.8,M,-34.2,M,,*63
$GPGGA,025446.00,4116.83275,N,07353.04175,W,1,09,1.08,128.3,M,-34.2,M,,*63
$GPGGA,025447.00,4116.83266,N,07353.04172,W,1,09,1.08,127.9,M,-34.2,M,,*62
$GPGGA,025448.00,4116.83259,N,07353.04172,W,1,09,1.08,127.5,M,-34.2,M,,*6D
$GPGGA,025449.00,4116.83261,N,07353.04177,W,1,09,1.08,127.2,M,-34.2,M,,*65
$GPGGA,025450.00,4116.83262,N,07353.04181,W,1,09,1.08,126.9,M,-34.2,M,,*6D
$GPGGA,025451.00,4116.83272,N,07353.04180,W,1,09,1.08,126.9,M,-34.2,M,,*6C
$GPGGA,025452.00,4116.83284,N,07353.04185,W,1,09,1.08,126.7,M,-34.2,M,,*6D
$GPGGA,025453.00,4116.83293,N,07353.04186,W,1,09,1.08,126.1,M,-34.2,M,,*6F
$GPGGA,025454.00,4116.83302,N,07353.04193,W,1,09,1.08,126.1,M,-34.2,M,,*65
$GPGGA,025455.00,4116.83313,N,07353.04197,W,1,09,1.08,125.7,M,-34.2,M,,*65
$GPGGA,025456.00,4116.83320,N,07353.04196,W,1,09,1.08,125.6,M,-34.2,M,,*66
$GPGGA,025457.00,4116.83328,N,07353.04200,W,1,09,1.08,125.5,M,-34.2,M,,*60
$GPGGA,025458.00,4116.83336,N,07353.04208,W,1,09,1.08,125.5,M,-34.2,M,,*68
$GPGGA,025459.00,4116.83342,N,07353.04219,W,1,09,1.08,125.4,M,-34.2,M,,*6B
$GPGGA,025500.00,4116.83354,N,07353.04227,W,1,09,1.08,125.4,M,-34.2,M,,*6C
$GPGGA,025501.00,4116.83351,N,07353.04229,W,1,09,1.08,125.6,M,-34.2,M,,*64
$GPGGA,025502.00,4116.83351,N,07353.04221,W,1,09,1.08,126.0,M,-34.2,M,,*6A
$GPGGA,025503.00,4116.83354,N,07353.04214,W,1,09,1.08,126.3,M,-34.2,M,,*6B
$GPGGA,025504.00,4116.83366,N,07353.04217,W,1,09,1.08,126.4,M,-34.2,M,,*69
$GPGGA,025505.00,4116.83391,N,07353.04227,W,1,09,1.08,126.3,M,-34.2,M,,*64
$GPGGA,025506.00,4116.83436,N,07353.04249,W,1,09,1.08,126.0,M,-34.2,M,,*66
$GPGGA,025507.00,4116.83461,N,07353.04262,W,1,09,1.08,126.0,M,-34.2,M,,*6C
$GPGGA,025508.00,4116.83497,N,07353.04280,W,1,09,1.08,125.9,M,-34.2,M,,*6C
$GPGGA,025509.00,4116.83485,N,07353.04278,W,1,08,1.29,126.3,M,-34.2,M,,*62
$GPGGA,025510.00,4116.83487,N,07353.04276,W,1,08,1.29,126.4,M,-34.2,M,,*61
$GPGGA,025511.00,4116.83490,N,07353.04270,W,1,08,1.29,126.5,M,-34.2,M,,*61
$GPGGA,025512.00,4116.83520,N,07353.04274,W,1,08,1.29,126.4,M,-34.2,M,,*6D
$GPGGA,025513.00,4116.83537,N,07353.04263,W,1,08,1.29,126.4,M,-34.2,M,,*6C
$GPGGA,025514.00,4116.83564,N,07353.04258,W,1,08,1.29,125.9,M,-34.2,M,,*6B
$GPGGA,025515.00,4116.83533,N,07353.04256,W,1,09,1.08,126.4,M,-34.2,M,,*6A
$GPGGA,025516.00,4116.83536,N,07353.04231,W,1,09,1.08,127.0,M,-34.2,M,,*68
$GPGGA,025517.00,4116.83552,N,07353.04209,W,1,08,1.29,126.9,M,-34.2,M,,*6A
$GPGGA,025518.00,4116.83570,N,07353.04193,W,1,08,1.29,127.0,M,-34.2,M,,*6D
$GPGGA,025519.00,4116.83585,N,07353.04183,W,1,08,1.29,126.9,M,-34.2,M,,*6F
$GPGGA,025520.00,4116.83631,N,07353.04170,W,1,08,1.29,126.5,M,-34.2,M,,*69
$GPGGA,025521.00,4116.83690,N,07353.04151,W,1,08,1.29,126.1,M,-34.2,M,,*64
$GPGGA,025522.00,4116.83669,N,07353.04169,W,1,08,1.29,126.4,M,-34.2,M,,*6F
$GPGGA,025523.00,4116.83657,N,07353.04165,W,1,08,1.29,127.1,M,-34.2,M,,*6B
$GPGGA,025524.00,4116.83645,N,07353.04157,W,1,08,1.29,127.3,M,-34.2,M,,*6C
$GPGGA,025525.00,4116.83709,N,07353.04146,W,1,08,1.29,126.3,M,-34.2,M,,*65
$GPGGA,025526.00,4116.83753,N,07353.04133,W,1,08,1.29,125.9,M,-34.2,M,,*62
$GPGGA,025527.00,4116.83770,N,07353.04125,W,1,08,1.29,126.1,M,-34.2,M,,*6E
$GPGGA,025528.00,4116.83781,N,07353.04113,W,1,08,1.29,126.6,M,-34.2,M,,*6D
$GPGGA,025529.00,4116.83854,N,07353.04095,W,1,08,1.29,125.7,M,-34.2,M,,*66
$GPGGA,025530.00,4116.83883,N,07353.04071,W,1,08,1.29,125.5,M,-34.2,M,,*6C
$GPGGA,025531.00,4116.83936,N,07353.04057,W,1,08,1.29,125.0,M,-34.2,M,,*63
$GPGGA,025532.00,4116.83951,N,07353.04057,W,1,08,1.29,125.1,M,-34.2,M,,*60
$GPGGA,025533.00,4116.83932,N,07353.04042,W,1,08,1.29,125.7,M,-34.2,M,,*66
$GPGGA,025534.00,4116.83909,N,07353.04035,W,1,08,1.29,126.0,M,-34.2,M,,*6D
$GPGGA,025535.00,4116.83890,N,07353.04039,W,1,08,1.29,126.1,M,-34.2,M,,*60
$GPGGA,025536.00,4116.83899,N,07353.04034,W,1,08,1.29,126.1,M,-34.2,M,,*67
$GPGGA,025537.00,4116.83917,N,07353.04022,W,1,08,1.29,125.7,M,-34.2,M,,*63
$GPGGA,025538.00,4116.83982,N,07353.04009,W,1,08,1.29,124.8,M,-34.2,M,,*67
$GPGGA,025539.00,4116.84010,N,07353.03962,W,1,09,1.08,125.5,M,-34.2,M,,*6E
$GPGGA,025540.00,4116.84001,N,07353.03924,W,1,09,1.08,126.6,M,-34.2,M,,*62
$GPGGA,025541.00,4116.83953,N,07353.03872,W,1,09,1.08,128.0,M,-34.2,M,,*60
$GPGGA,025542.00,4116.83942,N,07353.03870,W,1,09,1.08,129.1,M,-34.2,M,,*61
$GPGGA,025543.00,4116.83914,N,07353.03848,W,1,09,1.08,130.3,M,-34.2,M,,*62
$GPGGA,025544.00,4116.83915,N,07353.03836,W,1,09,1.08,131.0,M,-34.2,M,,*6F
$GPGGA,025545.00,4116.83904,N,07353.03807,W,1,09,1.08,131.8,M,-34.2,M,,*64
$GPGGA,025546.00,4116.83849,N,07353.03778,W,1,09,1.08,133.0,M,-34.2,M,,*62
$GPGGA,025547.00,4116.83837,N,07353.03758,W,1,09,1.07,133.6,M,-34.2,M,,*61
$GPGGA,025548.00,4116.83841,N,07353.03736,W,1,09,1.07,133.3,M,-34.2,M,,*62
$GPGGA,025549.00,4116.83833,N,07353.03727,W,1,09,1.07,134.0,M,-34.2,M,,*62
$GPGGA,025550.00,4116.83761,N,07353.03717,W,1,09,1.07,135.3,M,-34.2,M,,*63
$GPGGA,025551.00,4116.83746,N,07353.03708,W,1,09,1.07,135.9,M,-34.2,M,,*63
$GPGGA,025552.00,4116.83758,N,07353.03711,W,1,09,1.07,136.4,M,-34.2,M,,*69
$GPGGA,025553.00,4116.83769,N,07353.03713,W,1,09,1.07,137.4,M,-34.2,M,,*69
$GPGGA,025554.00,4116.83741,N,07353.03708,W,1,09,1.07,138.4,M,-34.2,M,,*61
$GPGGA,025555.00,4116.83672,N,07353.03669,W,1,09,1.07,138.7,M,-34.2,M,,*64
$GPGGA,025556.00,4116.83643,N,07353.03665,W,1,09,1.07,139.8,M,-34.2,M,,*67
$GPGGA,025557.00,4116.83598,N,07353.03659,W,1,09,1.07,140.4,M,-34.2,M,,*6E
$GPGGA,025558.00,4116.83596,N,07353.03658,W,1,09,1.07,139.8,M,-34.2,M,,*6C
$GPGGA,025559.00,4116.83593,N,07353.03671,W,1,09,1.07,140.7,M,-34.2,M,,*62
$GPGGA,025600.00,4116.83608,N,07353.03680,W,1,09,1.07,140.7,M,-34.2,M,,*62
$GPGGA,025601.00,4116.83599,N,07353.03680,W,1,09,1.07,140.5,M,-34.2,M,,*6A
$GPGGA,025602.00,4116.83622,N,07353.03691,W,1,09,1.07,140.4,M,-34.2,M,,*6B
$GPGGA,025603.00,4116.83642,N,07353.03700,W,1,08,1.13,139.7,M,-34.2,M,,*6C
$GPGGA,025604.00,4116.83609,N,07353.03693,W,1,09,1.07,140.2,M,-34.2,M,,*60
$GPGGA,025605.00,4116.83571,N,07353.03685,W,1,09,1.07,140.1,M,-34.2,M,,*69
$GPGGA,025606.00,4116.83537,N,07353.03682,W,1,09,1.07,140.3,M,-34.2,M,,*6D
$GPGGA,025607.00,4116.83509,N,07353.03671,W,1,08,1.13,140.0,M,-34.2,M,,*6A
$GPGGA,025608.00,4116.83503,N,07353.03672,W,1,08,1.13,139.6,M,-34.2,M,,*64
$GPGGA,025609.00,4116.83532,N,07353.03681,W,1,08,1.13,139.2,M,-34.2,M,,*6F
$GPGGA,025610.00,4116.83539,N,07353.03689,W,1,08,1.13,139.0,M,-34.2,M,,*66
$GPGGA,025611.00,4116.83516,N,07353.03689,W,1,08,1.13,139.0,M,-34.2,M,,*6A
$GPGGA,025612.00,4116.83495,N,07353.03691,W,1,08,1.13,138.9,M,-34.2,M,,*62
$GPGGA,025613.00,4116.83463,N,07353.03680,W,1,08,1.13,139.1,M,-34.2,M,,*63
$GPGGA,025614.00,4116.83454,N,07353.03681,W,1,08,1.13,139.2,M,-34.2,M,,*62
$GPGGA,025615.00,4116.83418,N,07353.03670,W,1,09,1.07,139.2,M,-34.2,M,,*61
$GPGGA,025616.00,4116.83376,N,07353.03668,W,1,09,1.07,139.1,M,-34.2,M,,*67
$GPGGA,025617.00,4116.83380,N,07353.03674,W,1,09,1.07,139.1,M,-34.2,M,,*62
$GPGGA,025618.00,4116.83362,N,07353.03673,W,1,09,1.07,139.0,M,-34.2,M,,*67
$GPGGA,025619.00,4116.83345,N,07353.03675,W,1,09,1.07,138.9,M,-34.2,M,,*6D
$GPGGA,025620.00,4116.83364,N,07353.03684,W,1,09,1.07,138.8,M,-34.2,M,,*6B
$GPGGA,025621.00,4116.83345,N,07353.03679,W,1,08,1.30,139.0,M,-34.2,M,,*67
$GPGGA,025622.00,4116.83341,N,07353.03687,W,1,08,1.30,139.0,M,-34.2,M,,*61
$GPGGA,025623.00,4116.83347,N,07353.03699,W,1,08,1.30,138.9,M,-34.2,M,,*61
$GPGGA,025624.00,4116.83353,N,07353.03701,W,1,08,1.30,138.8,M,-34.2,M,,*62
$GPGGA,025625.00,4116.83362,N,07353.03709,W,1,08,1.30,138.8,M,-34.2,M,,*69
$GPGGA,025626.00,4116.83360,N,07353.03711,W,1,08,1.30,138.9,M,-34.2,M,,*60
$GPGGA,025627.00,4116.83375,N,07353.03723,W,1,09,1.07,138.6,M,-34.2,M,,*6E
$GPGGA,025628.00,4116.83382,N,07353.03733,W,1,09,1.07,138.1,M,-34.2,M,,*6F
$GPGGA,025629.00,4116.83386,N,07353.03741,W,1,09,1.07,138.0,M,-34.2,M,,*6E
$GPGGA,025630.00,4116.83392,N,07353.03754,W,1,09,1.07,137.7,M,-34.2,M,,*6F
$GPGGA,025631.00,4116.83396,N,07353.03765,W,1,09,1.07,137.4,M,-34.2,M,,*6B
$GPGGA,025632.00,4116.83405,N,07353.03783,W,1,09,1.07,137.3,M,-34.2,M,,*6A
$GPGGA,025633.00,4116.83414,N,07353.03800,W,1,09,1.07,136.9,M,-34.2,M,,*64
$GPGGA,025634.00,4116.83419,N,07353.03813,W,1,09,1.07,137.0,M,-34.2,M,,*64
$GPGGA,025635.00,4116.83419,N,07353.03823,W,1,09,1.07,136.6,M,-34.2,M,,*61
$GPGGA,025636.00,4116.83413,N,07353.03826,W,1,09,1.07,136.5,M,-34.2,M,,*6E
$GPGGA,025637.00,4116.83404,N,07353.03841,W,1,09,1.07,136.5,M,-34.2,M,,*68
$GPGGA,025638.00,4116.83392,N,07353.03838,W,1,09,1.07,136.7,M,-34.2,M,,*63
$GPGGA,025639.00,4116.83383,N,07353.03847,W,1,08,1.30,136.5,M,-34.2,M,,*6D
$GPGGA,025640.00,4116.83379,N,07353.03857,W,1,08,1.30,136.4,M,-34.2,M,,*66
$GPGGA,025641.00,4116.83368,N,07353.03874,W,1,08,1.30,136.3,M,-34.2,M,,*61
$GPGGA,025642.00,4116.83359,N,07353.03867,W,1,08,1.30,136.5,M,-34.2,M,,*64
$GPGGA,025643.00,4116.83344,N,07353.03864,W,1,08,1.30,136.6,M,-34.2,M,,*69
$GPGGA,025644.00,4116.83346,N,07353.03862,W,1,08,1.30,136.7,M,-34.2,M,,*6B
$GPGGA,025645.00,4116.83345,N,07353.03856,W,1,08,1.30,136.6,M,-34.2,M,,*6F
$GPGGA,025646.00,4116.83342,N,07353.03852,W,1,08,1.30,136.5,M,-34.2,M,,*6C
$GPGGA,025647.00,4116.83341,N,07353.03852,W,1,09,1.07,136.2,M,-34.2,M,,*6C
$GPGGA,025648.00,4116.83339,N,07353.03850,W,1,09,1.07,136.3,M,-34.2,M,,*6F
$GPGGA,025649.00,4116.83331,N,07353.03848,W,1,09,1.07,136.4,M,-34.2,M,,*68
$GPGGA,025650.00,4116.83322,N,07353.03849,W,1,09,1.07,136.3,M,-34.2,M,,*64
$GPGGA,025651.00,4116.83308,N,07353.03857,W,1,09,1.07,136.2,M,-34.2,M,,*63
$GPGGA,025652.00,4116.83299,N,07353.03859,W,1,09,1.07,136.3,M,-34.2,M,,*66
$GPGGA,025653.00,4116.83286,N,07353.03862,W,1,09,1.07,136.3,M,-34.2,M,,*61
$GPGGA,025654.00,4116.83284,N,07353.03864,W,1,09,1.07,136.7,M,-34.2,M,,*66
$GPGGA,025655.00,4116.83273,N,07353.03874,W,1,08,1.29,136.5,M,-34.2,M,,*61
$GPGGA,025656.00,4116.83269,N,07353.03883,W,1,08,1.29,136.3,M,-34.2,M,,*67
$GPGGA,025657.00,4116.83262,N,07353.03881,W,1,09,1.07,136.7,M,-34.2,M,,*66
$GPGGA,025658.00,4116.83262,N,07353.03879,W,1,09,1.07,137.2,M,-34.2,M,,*6A
$GPGGA,025659.00,4116.83252,N,07353.03879,W,1,09,1.07,137.9,M,-34.2,M,,*63
$GPGGA,025700.00,4116.83241,N,07353.03876,W,1,09,1.07,138.4,M,-34.2,M,,*61
$GPGGA,025701.00,4116.83235,N,07353.03880,W,1,09,1.07,138.8,M,-34.2,M,,*66
$GPGGA,025702.00,4116.83232,N,07353.03885,W,1,09,1.07,139.1,M,-34.2,M,,*6F
$GPGGA,025703.00,4116.83222,N,07353.03889,W,1,09,1.07,139.5,M,-34.2,M,,*67
$GPGGA,025704.00,4116.83224,N,07353.03890,W,1,09,1.07,139.8,M,-34.2,M,,*63
$GPGGA,025705.00,4116.83213,N,07353.03886,W,1,09,1.07,140.2,M,-34.2,M,,*65
$GPGGA,025706.00,4116.83185,N,07353.03879,W,1,09,1.07,140.6,M,-34.2,M,,*6E
$GPGGA,025707.00,4116.83204,N,07353.03883,W,1,09,1.07,141.0,M,-34.2,M,,*67
$GPGGA,025708.00,4116.83181,N,07353.03876,W,1,09,1.07,141.3,M,-34.2,M,,*6F
$GPGGA,025709.00,4116.83187,N,07353.03878,W,1,09,1.07,141.7,M,-34.2,M,,*62
$GPGGA,025710.00,4116.83186,N,07353.03876,W,1,09,1.07,142.0,M,-34.2,M,,*61
$GPGGA,025711.00,4116.83143,N,07353.03860,W,1,09,1.07,142.4,M,-34.2,M,,*6A
$GPGGA,025712.00,4116.83155,N,07353.03864,W,1,09,1.07,142.6,M,-34.2,M,,*68
$GPGGA,025713.00,4116.83168,N,07353.03863,W,1,09,1.07,142.9,M,-34.2,M,,*6F
$GPGGA,025714.00,4116.83161,N,07353.03856,W,1,09,1.07,143.4,M,-34.2,M,,*6B
$GPGGA,025715.00,4116.83167,N,07353.03860,W,1,09,1.07,143.6,M,-34.2,M,,*6B
$GPGGA,025716.00,4116.83151,N,07353.03855,W,1,09,1.07,144.0,M,-34.2,M,,*6A
$GPGGA,025717.00,4116.83131,N,07353.03844,W,1,09,1.07,144.3,M,-34.2,M,,*6E
$GPGGA,025718.00,4116.83147,N,07353.03848,W,1,09,1.07,144.6,M,-34.2,M,,*69
$GPGGA,025719.00,4116.83178,N,07353.03848,W,1,09,1.07,145.1,M,-34.2,M,,*62
$GPGGA,025720.00,4116.83147,N,07353.03829,W,1,09,1.07,145.7,M,-34.2,M,,*65
$GPGGA,025721.00,4116.83122,N,07353.03830,W,1,09,1.07,145.9,M,-34.2,M,,*61
$GPGGA,025722.00,4116.83142,N,07353.03834,W,1,09,1.07,146.2,M,-34.2,M,,*68
$GPGGA,025723.00,4116.83141,N,07353.03829,W,1,09,1.07,146.4,M,-34.2,M,,*60
$GPGGA,025724.00,4116.83157,N,07353.03837,W,1,09,1.07,146.4,M,-34.2,M,,*6F
$GPGGA,025725.00,4116.83214,N,07353.03854,W,1,09,1.07,146.1,M,-34.2,M,,*6A
$GPGGA,025726.00,4116.83234,N,07353.03862,W,1,09,1.07,145.8,M,-34.2,M,,*64
$GPGGA,025727.00,4116.83265,N,07353.03866,W,1,09,1.07,145.5,M,-34.2,M,,*68
$GPGGA,025728.00,4116.83301,N,07353.03867,W,1,09,1.07,145.2,M,-34.2,M,,*62
$GPGGA,025729.00,4116.83367,N,07353.03883,W,1,09,1.07,144.9,M,-34.2,M,,*63
$GPGGA,025730.00,4116.83356,N,07353.03885,W,1,09,1.07,144.6,M,-34.2,M,,*60
$GPGGA,025731.00,4116.83358,N,07353.03885,W,1,08,1.32,144.4,M,-34.2,M,,*6A
$GPGGA,025732.00,4116.83330,N,07353.03896,W,1,08,1.32,144.0,M,-34.2,M,,*61
$GPGGA,025733.00,4116.83299,N,07353.03903,W,1,08,1.32,144.0,M,-34.2,M,,*6F
$GPGGA,025734.00,4116.83256,N,07353.03913,W,1,08,1.32,144.1,M,-34.2,M,,*6B
$GPGGA,025735.00,4116.83240,N,07353.03906,W,1,08,1.32,143.6,M,-34.2,M,,*69
$GPGGA,025736.00,4116.83250,N,07353.03904,W,1,08,1.32,143.1,M,-34.2,M,,*6E
$GPGGA,025737.00,4116.83266,N,07353.03911,W,1,08,1.32,142.8,M,-34.2,M,,*66
$GPGGA,025738.00,4116.83269,N,07353.03917,W,1,07,1.52,142.3,M,-34.2,M,,*62
$GPGGA,025739.00,4116.83303,N,07353.03922,W,1,08,1.29,141.8,M,-34.2,M,,*63
$GPGGA,025740.00,4116.83343,N,07353.03915,W,1,08,1.29,141.3,M,-34.2,M,,*66
$GPGGA,025741.00,4116.83362,N,07353.03917,W,1,08,1.29,141.1,M,-34.2,M,,*64
$GPGGA,025742.00,4116.83361,N,07353.03919,W,1,08,1.29,140.8,M,-34.2,M,,*62
$GPGGA,025743.00,4116.83385,N,07353.03920,W,1,08,1.29,140.8,M,-34.2,M,,*63
$GPGGA,025744.00,4116.83397,N,07353.03924,W,1,08,1.29,141.2,M,-34.2,M,,*68
$GPGGA,025745.00,4116.83435,N,07353.03931,W,1,08,1.29,141.5,M,-34.2,M,,*65
$GPGGA,025746.00,4116.83437,N,07353.03945,W,1,08,1.29,141.6,M,-34.2,M,,*64
$GPGGA,025747.00,4116.83472,N,07353.03942,W,1,07,1.52,141.6,M,-34.2,M,,*60
$GPGGA,025748.00,4116.83523,N,07353.03935,W,1,07,1.52,141.4,M,-34.2,M,,*68
$GPGGA,025749.00,4116.83527,N,07353.03945,W,1,07,1.52,141.7,M,-34.2,M,,*69
$GPGGA,025750.00,4116.83558,N,07353.03928,W,1,07,1.52,141.6,M,-34.2,M,,*63
$GPGGA,025751.00,4116.83577,N,07353.03925,W,1,08,1.29,141.7,M,-34.2,M,,*60
$GPGGA,025752.00,4116.83593,N,07353.03925,W,1,08,1.29,141.9,M,-34.2,M,,*67
$GPGGA,025753.00,4116.83614,N,07353.03918,W,1,08,1.29,142.0,M,-34.2,M,,*6E
$GPGGA,025754.00,4116.83637,N,07353.03912,W,1,08,1.29,142.3,M,-34.2,M,,*61
$GPGGA,025755.00,4116.83679,N,07353.03895,W,1,08,1.29,141.9,M,-34.2,M,,*6D
$GPGGA,025756.00,4116.83705,N,07353.03880,W,1,08,1.29,141.9,M,-34.2,M,,*60
$GPGGA,025757.00,4116.83725,N,07353.03868,W,1,08,1.29,141.2,M,-34.2,M,,*6E
$GPGGA,025758.00,4116.83754,N,07353.03855,W,1,08,1.29,140.6,M,-34.2,M,,*6C
$GPGGA,025759.00,4116.83787,N,07353.03832,W,1,08,1.29,139.4,M,-34.2,M,,*6E
$GPGGA,025800.00,4116.83819,N,07353.03808,W,1,08,1.29,138.5,M,-34.2,M,,*6C
$GPGGA,025801.00,4116.83847,N,07353.03773,W,1,09,1.07,137.9,M,-34.2,M,,*6B
$GPGGA,025802.00,4116.83897,N,07353.03739,W,1,09,1.07,136.7,M,-34.2,M,,*64
$GPGGA,025803.00,4116.83967,N,07353.03702,W,1,09,1.07,135.3,M,-34.2,M,,*64
$GPGGA,025804.00,4116.84003,N,07353.03691,W,1,09,1.07,134.4,M,-34.2,M,,*62
$GPGGA,025805.00,4116.84042,N,07353.03676,W,1,08,1.29,133.7,M,-34.2,M,,*66
$GPGGA,025806.00,4116.84041,N,07353.03678,W,1,08,1.29,133.9,M,-34.2,M,,*66
$GPGGA,025807.00,4116.84069,N,07353.03673,W,1,08,1.29,133.4,M,-34.2,M,,*6B
$GPGGA,025808.00,4116.84068,N,07353.03668,W,1,08,1.29,133.4,M,-34.2,M,,*6F
$GPGGA,025809.00,4116.84069,N,07353.03636,W,1,08,1.29,133.5,M,-34.2,M,,*65
$GPGGA,025810.00,4116.84076,N,07353.03604,W,1,08,1.29,133.5,M,-34.2,M,,*62
$GPGGA,025811.00,4116.84048,N,07353.03586,W,1,08,1.29,134.3,M,-34.2,M,,*66
$GPGGA,025812.00,4116.84073,N,07353.03571,W,1,08,1.29,134.2,M,-34.2,M,,*64
$GPGGA,025813.00,4116.84075,N,07353.03548,W,1,08,1.29,133.8,M,-34.2,M,,*64
$GPGGA,025814.00,4116.84095,N,07353.03524,W,1,07,1.71,133.6,M,-34.2,M,,*6B
$GPGGA,025815.00,4116.84093,N,07353.03503,W,1,07,1.71,133.7,M,-34.2,M,,*68
$GPGGA,025816.00,4116.84056,N,07353.03511,W,1,07,1.71,134.0,M,-34.2,M,,*61
$GPGGA,025817.00,4116.84058,N,07353.03501,W,1,07,1.71,133.5,M,-34.2,M,,*6D
$GPGGA,025818.00,4116.84089,N,07353.03484,W,1,07,1.71,133.0,M,-34.2,M,,*67
$GPGGA,025819.00,4116.84120,N,07353.03480,W,1,07,1.71,132.1,M,-34.2,M,,*60
$GPGGA,025820.00,4116.84152,N,07353.03474,W,1,07,1.71,130.9,M,-34.2,M,,*6E
$GPGGA,025821.00,4116.84235,N,07353.03455,W,1,07,1.71,129.1,M,-34.2,M,,*6E
$GPGGA,025822.00,4116.84312,N,07353.03450,W,1,07,1.71,128.0,M,-34.2,M,,*6C
$GPGGA,025823.00,4116.84372,N,07353.03446,W,1,07,1.71,126.8,M,-34.2,M,,*6A
$GPGGA,025824.00,4116.84386,N,07353.03453,W,1,07,1.71,126.0,M,-34.2,M,,*6A
$GPGGA,025825.00,4116.84408,N,07353.03468,W,1,07,1.72,125.5,M,-34.2,M,,*67
$GPGGA,025826.00,4116.84393,N,07353.03482,W,1,07,1.72,124.9,M,-34.2,M,,*68
$GPGGA,025827.00,4116.84463,N,07353.03478,W,1,07,1.72,123.7,M,-34.2,M,,*6D
$GPGGA,025828.00,4116.84470,N,07353.03516,W,1,07,1.72,123.3,M,-34.2,M,,*6D
$GPGGA,025829.00,4116.84467,N,07353.03539,W,1,07,1.72,123.0,M,-34.2,M,,*64
$GPGGA,025830.00,4116.84466,N,07353.03563,W,1,07,1.72,122.7,M,-34.2,M,,*64
$GPGGA,025831.00,4116.84513,N,07353.03579,W,1,07,1.72,121.9,M,-34.2,M,,*60
$GPGGA,025832.00,4116.84468,N,07353.03606,W,1,07,1.72,122.4,M,-34.2,M,,*6B
$GPGGA,025833.00,4116.84431,N,07353.03641,W,1,07,1.72,122.7,M,-34.2,M,,*66
$GPGGA,025834.00,4116.84432,N,07353.03661,W,1,07,1.72,122.7,M,-34.2,M,,*60
$GPGGA,025835.00,4116.84375,N,07353.03709,W,1,06,1.94,123.3,M,-34.2,M,,*66
$GPGGA,025836.00,4116.84321,N,07353.03735,W,1,06,1.94,124.0,M,-34.2,M,,*6F
$GPGGA,025837.00,4116.84307,N,07353.03754,W,1,06,1.94,123.8,M,-34.2,M,,*62
$GPGGA,025838.00,4116.84278,N,07353.03792,W,1,06,1.94,124.0,M,-34.2,M,,*61
$GPGGA,025839.00,4116.84147,N,07353.03859,W,1,07,1.27,126.3,M,-34.2,M,,*6F
$GPGGA,025840.00,4116.83952,N,07353.03936,W,1,08,1.17,129.3,M,-34.2,M,,*61
$GPGGA,025841.00,4116.83928,N,07353.03950,W,1,08,1.17,130.0,M,-34.2,M,,*66
$GPGGA,025842.00,4116.83823,N,07353.03974,W,1,08,1.17,131.7,M,-34.2,M,,*6F
$GPGGA,025843.00,4116.83736,N,07353.04026,W,1,08,1.17,132.4,M,-34.2,M,,*6C
$GPGGA,025844.00,4116.83678,N,07353.04053,W,1,08,1.17,132.8,M,-34.2,M,,*6E
$GPGGA,025845.00,4116.83605,N,07353.04096,W,1,08,1.17,133.3,M,-34.2,M,,*66
$GPGGA,025846.00,4116.83565,N,07353.04101,W,1,08,1.17,133.7,M,-34.2,M,,*6B
$GPGGA,025847.00,4116.83537,N,07353.04110,W,1,08,1.17,134.3,M,-34.2,M,,*6E
$GPGGA,025848.00,4116.83482,N,07353.04124,W,1,08,1.17,135.1,M,-34.2,M,,*6A
$GPGGA,025849.00,4116.83448,N,07353.04140,W,1,08,1.17,135.9,M,-34.2,M,,*67
$GPGGA,025850.00,4116.83430,N,07353.04149,W,1,08,1.17,136.3,M,-34.2,M,,*60
$GPGGA,025851.00,4116.83344,N,07353.04196,W,1,08,1.17,136.6,M,-34.2,M,,*62
$GPGGA,025852.00,4116.83282,N,07353.04216,W,1,08,1.17,137.6,M,-34.2,M,,*60
$GPGGA,025853.00,4116.83284,N,07353.04220,W,1,08,1.17,137.8,M,-34.2,M,,*6C
$GPGGA,025854.00,4116.83268,N,07353.04231,W,1,08,1.17,138.0,M,-34.2,M,,*6E
$GPGGA,025855.00,4116.83264,N,07353.04229,W,1,09,1.07,138.5,M,-34.2,M,,*6F
$GPGGA,025856.00,4116.83209,N,07353.04258,W,1,09,1.07,139.0,M,-34.2,M,,*65
$GPGGA,025857.00,4116.83178,N,07353.04266,W,1,09,1.07,139.9,M,-34.2,M,,*65
$GPGGA,025858.00,4116.83160,N,07353.04273,W,1,09,1.07,140.3,M,-34.2,M,,*63
$GPGGA,025859.00,4116.83171,N,07353.04271,W,1,08,1.28,140.3,M,-34.2,M,,*6C
$GPGGA,025900.00,4116.83190,N,07353.04272,W,1,08,1.28,140.0,M,-34.2,M,,*6E
$GPGGA,025901.00,4116.83194,N,07353.04271,W,1,08,1.28,140.0,M,-34.2,M,,*68
$GPGGA,025902.00,4116.83197,N,07353.04266,W,1,08,1.28,140.3,M,-34.2,M,,*6D
$GPGGA,025903.00,4116.83223,N,07353.04254,W,1,08,1.28,140.2,M,-34.2,M,,*60
$GPGGA,025904.00,4116.83216,N,07353.04247,W,1,08,1.28,140.6,M,-34.2,M,,*67
$GPGGA,025905.00,4116.83206,N,07353.04246,W,1,08,1.28,140.8,M,-34.2,M,,*68
$GPGGA,025906.00,4116.83224,N,07353.04228,W,1,08,1.28,141.1,M,-34.2,M,,*6B
$GPGGA,025907.00,4116.83213,N,07353.04213,W,1,08,1.28,141.8,M,-34.2,M,,*6F
$GPGGA,025908.00,4116.83245,N,07353.04193,W,1,08,1.28,142.0,M,-34.2,M,,*63
$GPGGA,025909.00,4116.83261,N,07353.04190,W,1,08,1.28,142.0,M,-34.2,M,,*67
$GPGGA,025910.00,4116.83271,N,07353.04183,W,1,08,1.28,142.3,M,-34.2,M,,*6F
$GPGGA,025911.00,4116.83285,N,07353.04172,W,1,08,1.28,142.5,M,-34.2,M,,*6D
$GPGGA,025912.00,4116.83314,N,07353.04144,W,1,08,1.28,142.5,M,-34.2,M,,*62
$GPGGA,025913.00,4116.83339,N,07353.04153,W,1,08,1.28,142.7,M,-34.2,M,,*68
$GPGGA,025914.00,4116.83395,N,07353.04113,W,1,08,1.28,142.7,M,-34.2,M,,*6D
$GPGGA,025915.00,4116.83445,N,07353.04068,W,1,08,1.28,142.6,M,-34.2,M,,*6A
$GPGGA,025916.00,4116.83536,N,07353.04032,W,1,08,1.28,142.3,M,-34.2,M,,*66
$GPGGA,025917.00,4116.83534,N,07353.04039,W,1,07,1.72,142.2,M,-34.2,M,,*6F
$GPGGA,025918.00,4116.83563,N,07353.04020,W,1,07,1.72,142.2,M,-34.2,M,,*6A
$GPGGA,025919.00,4116.83606,N,07353.03959,W,1,07,1.72,142.0,M,-34.2,M,,*69
$GPGGA,025920.00,4116.83642,N,07353.03913,W,1,07,1.72,142.0,M,-34.2,M,,*6D
$GPGGA,025921.00,4116.83642,N,07353.03849,W,1,07,1.72,142.0,M,-34.2,M,,*62
$GPGGA,025922.00,4116.83653,N,07353.03838,W,1,06,2.04,142.1,M,-34.2,M,,*65
$GPGGA,025923.00,4116.83684,N,07353.03876,W,1,07,1.32,141.9,M,-34.2,M,,*68
$GPGGA,025924.00,4116.83698,N,07353.03861,W,1,07,1.32,141.7,M,-34.2,M,,*6A
$GPGGA,025925.00,4116.83671,N,07353.03880,W,1,07,1.32,142.1,M,-34.2,M,,*66
$GPGGA,025926.00,4116.83605,N,07353.03924,W,1,07,1.32,142.6,M,-34.2,M,,*6E
$GPGGA,025927.00,4116.83535,N,07353.03929,W,1,08,1.28,143.3,M,-34.2,M,,*62
$GPGGA,025928.00,4116.83471,N,07353.03937,W,1,08,1.28,143.6,M,-34.2,M,,*66
